Station_Name,Station_Town,Department,Longitude,Latitude,FRET,VOYAGEURS
La Douzillère,JOUE-LES-TOURS,INDRE-ET-LOIRE,0.653001386682489,47.33866140621093,N,O
La Défense,PUTEAUX,HAUTS-DE-SEINE,2.238471684534599,48.89343723770491,N,O
Byans,BYANS-SUR-DOUBS,DOUBS,5.852088069196292,47.11832925172662,N,O
Chamelet,CHAMELET,RHONE,4.507016244543598,45.98167025804158,N,O
L'Hermitage-Mordelles,L'HERMITAGE,ILLE-ET-VILAINE,-1.81921151526776,48.123335774611554,O,O
Châlons-en-Champagne,CHALONS-EN-CHAMPAGNE,MARNE,4.348974315249643,48.95527794985203,O,O
Hoerdt,HRDT,BAS-RHIN,7.7797685201344,48.70309760982452,N,O
Flez-Cuzy-Tannay,TANNAY,NIEVRE,3.615134800485459,47.363016895951745,N,O
Plouaret-Trégor,LE VIEUX-MARCHE,COTES-D'ARMOR,-3.457983953556017,48.606290948971115,N,O
Cadaujac,CADAUJAC,GIRONDE,-0.537923689084897,44.75198423836627,N,O
Creil,CREIL,OISE,2.469338512801428,49.26433696531956,O,O
Champagné,CHAMPAGNE,SARTHE,0.336034717275254,48.01999207493511,O,O
Vern,VERN-SUR-SEICHE,ILLE-ET-VILAINE,-1.596590935217561,48.04697466541346,N,O
Ste-Geneviève-des-Bois,SAINTE-GENEVIEVE-DES-BOIS,ESSONNE,2.311349268650718,48.652126468780416,N,O
Haguenau,SCHWEIGHOUSE-SUR-MODER,BAS-RHIN,7.741946133955294,48.828951234919714,O,O
Issy-Val-de-Seine,ISSY-LES-MOULINEAUX,HAUTS-DE-SEINE,2.263061548452739,48.829206272653394,N,O
Vergèze-Codognan,VERGEZE,GARD,4.219113329716423,43.73977946287461,O,O
Champlan,CHAMPLAN,ESSONNE,2.279341221911651,48.709290647180765,N,O
Wittring,WITTRING,MOSELLE,7.140819812049893,49.055958481804154,N,O
Hochfelden,HOCHFELDEN,BAS-RHIN,7.572162441093835,48.755137916528135,O,O
St-Roch (Somme),AMIENS,SOMME,2.283469712395204,49.893141071352986,O,O
Villeneuve-St-Georges,VILLENEUVE-SAINT-GEORGES,VAL-DE-MARNE,2.446378941339316,48.73143575163359,N,O
Caussade,CAUSSADE,TARN-ET-GARONNE,1.533047244838831,44.16128580816961,O,O
Bellegarde,VALSERHONE,AIN,5.825676729983513,46.11051692198756,O,O
Montreuil-sur-Mer,MONTREUIL,PAS-DE-CALAIS,1.769017904748211,50.46637341957389,N,O
Lucé,LUCE,EURE-ET-LOIR,1.453018308838864,48.43670752102672,O,O
Us,US,VAL-D'OISE,1.970571442485532,49.099575309029696,N,O
Lauterbourg,LAUTERBOURG,BAS-RHIN,8.182587532363396,48.96716996582567,O,O
St-Léon-sur-l'Isle,SAINT-LEON-SUR-L'ISLE,DORDOGNE,0.492393736576139,45.123254805200325,N,O
Ste-Colombe,SAINTE-COLOMBE,DOUBS,6.266118394080583,46.87920222190296,N,O
Foug,FOUG,MEURTHE-ET-MOSELLE,5.791096876217142,48.67922863357788,O,O
Vaudagne,LES HOUCHES,HAUTE-SAVOIE,6.772718953597742,45.9088333354493,N,O
Sallaumines,SALLAUMINES,PAS-DE-CALAIS,2.853313364463135,50.41757686621085,N,O
La Bouteille,LA BOUTEILLE,AISNE,3.982780234602766,49.86013200625363,N,O
Éragny-Neuville,ERAGNY,VAL-D'OISE,2.090693441119665,49.01807541544188,O,O
Bugeat,BUGEAT,CORREZE,1.924701307116646,45.600671390919544,N,O
Biarritz,BIARRITZ,PYRENEES-ATLANTIQUES,-1.546701196505992,43.45903906706433,N,O
Aix-les-Bains-Le Revard,AIX-LES-BAINS,SAVOIE,5.908901294915313,45.68811242803133,N,O
Tergnier,TERGNIER,AISNE,3.296029163054813,49.65702541631007,O,O
Elne,ELNE,PYRENEES-ORIENTALES,2.963323638197445,42.59738878190676,N,O
Aix-les-Bains-Le Revard,AIX-LES-BAINS,SAVOIE,5.908892281827733,45.68821941185765,N,O
Montpellier Sud-de-France,LATTES,HERAULT,3.913503031859993,43.59059396781462,N,O
Dreux,DREUX,EURE-ET-LOIR,1.36657308615931,48.72968627977277,O,O
Laboissière-le-Déluge,LABOISSIERE-EN-THELLE,OISE,2.136162166775652,49.288495150682685,N,O
Vervins,VERVINS,AISNE,3.893379399194967,49.83006081663903,N,O
Livry-sur-Seine,LIVRY-SUR-SEINE,SEINE-ET-MARNE,2.678950684970236,48.51037289873945,N,O
Les Aubrais-Orléans,FLEURY-LES-AUBRAIS,LOIRET,1.906180921730926,47.926275249867174,O,O
Vic-Mireval,VIC-LA-GARDIOLE,HERAULT,3.799519790518108,43.500776527296345,N,O
Buno-Gironville,BUNO-BONNEVAUX,ESSONNE,2.387007586562321,48.37033137332853,N,O
Les Pélerins,CHAMONIX-MONT-BLANC,HAUTE-SAVOIE,6.84730960664686,45.91247166220063,N,O
Anstaing,ANSTAING,NORD,3.193058529003587,50.60461729251908,N,O
Collioure,COLLIOURE,PYRENEES-ORIENTALES,3.078202792729514,42.52676701474552,N,O
Kogenheim,KOGENHEIM,BAS-RHIN,7.535256303145657,48.33901322206883,N,O
Crêches-sur-Saône,CRECHES-SUR-SAONE,SAONE-ET-LOIRE,4.784192910496286,46.24614606788354,N,O
Neuillé-Pont-Pierre,NEUILLE-PONT-PIERRE,INDRE-ET-LOIRE,0.56491028980691,47.55801500355749,O,O
Groisy-Thorens-la-Caille,GROISY,HAUTE-SAVOIE,6.175631902610534,46.01119331165716,O,O
Belleville-Vendée,BELLEVIGNY,VENDEE,-1.434609949205068,46.788322662319686,N,O
Lieusaint-Moissy,LIEUSAINT,SEINE-ET-MARNE,2.569445631919197,48.62986058610392,O,O
Montbéliard,MONTBELIARD,DOUBS,6.801539332256802,47.51050788740413,O,O
Valenciennes,VALENCIENNES,NORD,3.517355969325083,50.36460712971786,O,O
Vendenheim,VENDENHEIM,BAS-RHIN,7.718218127488554,48.66540400117573,N,O
Pruniers,GIEVRES,LOIR-ET-CHER,1.672257775086366,47.313156014873194,N,O
Coron-de-Méricourt,MERICOURT,PAS-DE-CALAIS,2.884601268484962,50.41498395300304,N,O
St-Louis,SAINT-LOUIS,HAUT-RHIN,7.55486154717174,47.5902689352657,O,O
Bois-Colombes,BOIS-COLOMBES,HAUTS-DE-SEINE,2.272569987445096,48.913399517369236,N,O
Chouzy,VALLOIRE-SUR-CISSE,LOIR-ET-CHER,1.247857321419655,47.52032137784461,N,O
Murat,MURAT,CANTAL,2.869632362496703,45.109055864544665,O,O
Le Monastier,BOURGS SUR COLAGNE,LOZERE,3.252222124005448,44.50890669463762,N,O
Les Aubrais-Orléans,FLEURY-LES-AUBRAIS,LOIRET,1.906384220362918,47.9270838366912,O,O
Esbly,ESBLY,SEINE-ET-MARNE,2.810621935936422,48.90314285769408,N,O
La Tricherie,BEAUMONT SAINT-CYR,VIENNE,0.440613237625385,46.728653726742536,O,O
Vaumoise,COYOLLES,AISNE,2.988488393716951,49.23368839146981,O,O
Iteuil,ITEUIL,VIENNE,0.316918460854919,46.48421650972457,N,O
Walygator-Parc,MAIZIERES-LES-METZ,MOSELLE,6.159567248539695,49.22454054683985,N,O
St-Victor-Thizy,SAINT-VICTOR-SUR-RHINS,LOIRE,4.281196242917453,46.00228968421425,N,O
Fresnoy-le-Grand,FRESNOY-LE-GRAND,AISNE,3.432591812348431,49.95023606754016,O,O
Ondres,ONDRES,LANDES,-1.456896038241611,43.568787790173175,N,O
Magland,MAGLAND,HAUTE-SAVOIE,6.621201466016067,46.016930329818535,N,O
Breuillet-Bruyères-le-Châtel,BREUILLET,ESSONNE,2.191610679522858,48.577254746375345,N,O
Belloy-St-Martin,BELLOY-EN-FRANCE,VAL-D'OISE,2.361203045024103,49.09815099951254,N,O
Notre-Dame-de-Briançon,LA LECHERE,SAVOIE,6.468704614901503,45.53933536334153,O,O
Pontrieux,PONTRIEUX,COTES-D'ARMOR,-3.157066128939595,48.705570848956256,N,O
St-Ouen-l'Aumône-Église,SAINT-OUEN-L'AUMONE,VAL-D'OISE,2.103636686072468,49.03928027866388,N,O
Viévola,TENDE,ALPES-MARITIMES,7.563037296893532,44.11237966122452,N,O
Lyon-Jean-Macé,LYON,RHONE,4.841811647771396,45.745014727981626,N,O
St-Blaise-la-Roche-Poutay,SAINT-BLAISE-LA-ROCHE,BAS-RHIN,7.165571428718571,48.407715325539854,N,O
Ste-Eulalie-Carbon-Blanc,SAINTE-EULALIE,GIRONDE,-0.493677732798581,44.898006283140774,N,O
Boussy-St-Antoine,BOUSSY-SAINT-ANTOINE,ESSONNE,2.531116871671902,48.68174962531153,N,O
Bram,BRAM,AUDE,2.120248655746591,43.24374242931478,O,O
Tracy-Sancerre,TRACY-SUR-LOIRE,NIEVRE,2.880650704295121,47.33755110531872,O,O
Longueville,LONGUEVILLE,SEINE-ET-MARNE,3.248786566166764,48.514782273818554,O,O
Couilly-St-Germain,SAINT-GERMAIN-SUR-MORIN,SEINE-ET-MARNE,2.85423876033952,48.88268311019452,N,O
Bologne,BOLOGNE,HAUTE-MARNE,5.134533675582394,48.19864643080646,O,O
Changis-St-Jean,CHANGIS-SUR-MARNE,SEINE-ET-MARNE,3.025347777327805,48.95916369096754,O,O
Aubiat,AUBIAT,PUY-DE-DOME,3.160423216545076,45.98387527179955,N,O
Loreux,LOREUX,LOIR-ET-CHER,1.834338665664359,47.39020300817494,N,O
Gannat,GANNAT,ALLIER,3.204865220044901,46.097617863456954,O,O
Rassuen,ISTRES,BOUCHES-DU-RHONE,4.97296294189413,43.49679703645579,N,O
Chilly-Mazarin,CHILLY-MAZARIN,ESSONNE,2.307528869423246,48.700925441855155,N,O
Marmagne,MARMAGNE,CHER,2.282794642929905,47.09990251736413,N,O
Mussidan,SAINT-MEDARD-DE-MUSSIDAN,DORDOGNE,0.353907886033932,45.03454481999586,O,O
Mennessis,MENNESSIS,AISNE,3.270235364802346,49.692176557029384,N,O
Annappes,VILLENEUVE-D'ASCQ,NORD,3.146351026241638,50.622876232702744,N,O
Audrieu,AUDRIEU,CALVADOS,-0.595249263722527,49.216318490815695,N,O
Pontarlier,PONTARLIER,DOUBS,6.357115258059566,46.899576657901385,O,O
Lyon-Vaise,LYON,RHONE,4.803463671227938,45.78017749357846,O,O
Arnèke,ARNEKE,NORD,2.408173440631014,50.83081761670071,N,O
Le Teil,LE TEIL,ARDECHE,4.686672580575165,44.55326767569856,O,O
Lesquin,LESQUIN,NORD,3.118755929274787,50.589998491922394,N,O
St-Césaire,NIMES,GARD,4.327963542425942,43.81354643785989,O,O
Anzeling,ANZELING,MOSELLE,6.459586407658986,49.2624167581957,N,O
Renescure,RENESCURE,NORD,2.372330558433976,50.73196874003682,N,O
Valence,VALENCE,DROME,4.893437965143693,44.9279186519997,N,O
Jonzac,JONZAC,CHARENTE-MARITIME,-0.441990254629341,45.43868717338337,O,O
La Hutte-Coulombiers,FRESNAY-SUR-SARTHE,SARTHE,0.104261655412172,48.30100235542934,O,O
Hénin-Beaumont,HENIN-BEAUMONT,PAS-DE-CALAIS,2.95246940126036,50.41689907443113,O,O
Marchezais-Broué,BROUE,EURE-ET-LOIR,1.513661379138585,48.7683066391684,O,O
Le Méridien,CHARBONNIERES-LES-BAINS,RHONE,4.748267623974998,45.7689133390078,N,O
Pont-de-l'Alma,PARIS,PARIS,2.300381827113453,48.86246272798137,N,O
Rilly-la-Montagne,RILLY-LA-MONTAGNE,MARNE,4.040905519057281,49.16647916815051,N,O
Béning,BENING-LES-SAINT-AVOLD,MOSELLE,6.828569962775861,49.13823357590087,O,O
Commentry,COMMENTRY,ALLIER,2.747704418236566,46.29873767530418,O,O
Orthez,ORTHEZ,PYRENEES-ATLANTIQUES,-0.767248033233532,43.4840576350703,N,O
Croix-Sainte,MARTIGUES,BOUCHES-DU-RHONE,5.01971020428391,43.408881137966134,N,O
Ste-Pazanne,SAINTE-PAZANNE,LOIRE-ATLANTIQUE,-1.817875172027586,47.10243686807898,N,O
Mauves-sur-Loire,MAUVES-SUR-LOIRE,LOIRE-ATLANTIQUE,-1.389123609528093,47.2928631547842,N,O
Noirétable,NOIRETABLE,LOIRE,3.761191342112098,45.81601494704283,N,O
Villedieu-les-Poêles,VILLEDIEU-LES-POELES-ROUFFIGNY,MANCHE,-1.225272555906044,48.834229680085095,N,O
Savigny-sur-Orge,SAVIGNY-SUR-ORGE,ESSONNE,2.350700447795131,48.67447164259944,N,O
Bartenheim,BARTENHEIM,HAUT-RHIN,7.487634905148902,47.63490670376327,N,O
Domfront,DOMFRONT-EN-CHAMPAGNE,SARTHE,0.02615649626639,48.10776080791002,N,O
Bayon,VIRECOURT,MEURTHE-ET-MOSELLE,6.322868633344423,48.468006065186245,N,O
Quimper,QUIMPER,FINISTERE,-4.092232861763613,47.9948237414113,O,O
Laigné-St-Gervais,SAINT-GERVAIS-EN-BELIN,SARTHE,0.21711697606233,47.874086302889985,N,O
Orange,ORANGE,VAUCLUSE,4.819641074737519,44.137454588757976,O,O
Hymont-Mattaincourt,HYMONT,VOSGES,6.146589814151718,48.27044863675517,N,O
Asnières-sur-Seine,ASNIERES-SUR-SEINE,HAUTS-DE-SEINE,2.284226483619607,48.9055284826499,N,O
Chamborigaud,CHAMBORIGAUD,GARD,3.979429869919518,44.30032167784233,N,O
Quimperlé,QUIMPERLE,FINISTERE,-3.552988951161868,47.869309994444535,O,O
Lamballe,LAMBALLE-ARMOR,COTES-D'ARMOR,-2.511460566036283,48.46594346923323,O,O
St-Aubin-St-Luperce,SAINT-AUBIN-DES-BOIS,EURE-ET-LOIR,1.331738952026448,48.447662575131886,N,O
Miramas,MIRAMAS,BOUCHES-DU-RHONE,4.998792596074934,43.580978723590526,O,O
Juvisy,JUVISY-SUR-ORGE,ESSONNE,2.383582706203988,48.689256635146194,O,O
Bar-sur-Aube,BAR-SUR-AUBE,AUBE,4.707058954282401,48.23856610507349,O,O
Bruges,BRUGES,GIRONDE,-0.608935358415718,44.88594609311808,O,O
Verneuil-sur-Avre,VERNEUIL D'AVRE ET D'ITON,EURE,0.929326148683417,48.74272317931935,O,O
St-Cyprien-en-Dordogne,SAINT-CYPRIEN,DORDOGNE,1.043594147913342,44.86332595028344,N,O
Soulac-sur-Mer,SOULAC-SUR-MER,GIRONDE,-1.117391489531038,45.50796997259541,N,O
Livry-Gargan,LES PAVILLONS-SOUS-BOIS,SEINE-SAINT-DENIS,2.516725418406955,48.90767694942742,N,O
St-Béron-La Bridoire,SAINT-BERON,SAVOIE,5.731846117319325,45.50400115855712,N,O
Ygos,YGOS-SAINT-SATURNIN,LANDES,-0.736194651381462,43.9782838263899,N,O
Teting,TETING-SUR-NIED,MOSELLE,6.66473128304083,49.05171884960215,N,O
Veynes-Dévoluy,VEYNES,HAUTES-ALPES,5.815248569752371,44.53164106947219,O,O
Arc-et-Senans,ARC-ET-SENANS,DOUBS,5.776756496835827,47.03027182366823,N,O
Pont-Cardinet,PARIS,PARIS,2.314071416178038,48.88751952557368,N,O
Culmont-Chalindrey,CULMONT,HAUTE-MARNE,5.443749963710532,47.80960156265851,O,O
Avesnelles,AVESNELLES,NORD,3.946104821951606,50.11977556237729,N,O
St-Lothain,SAINT-LOTHAIN,JURA,5.643810199795414,46.82310722917793,N,O
Bellenaves,BELLENAVES,ALLIER,3.06661488746179,46.1993421123937,N,O
St-Ouen-l'Aumône,SAINT-OUEN-L'AUMONE,VAL-D'OISE,2.107667640493494,49.04542573292791,N,O
Montceau-les-Mines,MONTCEAU-LES-MINES,SAONE-ET-LOIRE,4.361105316071837,46.67051156636181,O,O
Le Croisic,LE CROISIC,LOIRE-ATLANTIQUE,-2.506895318720328,47.28976224201512,N,O
Paris-Montparnasse,PARIS,PARIS,2.319820501512475,48.84064284370186,N,O
Loches,LOCHES,INDRE-ET-LOIRE,1.000978884791213,47.13040196262713,N,O
Arbois,ARBOIS,JURA,5.763090017438219,46.91270132171763,N,O
Rouen-Rive-Droite,ROUEN,SEINE-MARITIME,1.094233526260265,49.4491878684027,O,O
Rouillé,ROUILLE,VIENNE,0.041896403862968,46.418749776034865,N,O
Haguenau,HAGUENAU,BAS-RHIN,7.782383193842469,48.813268914308225,O,O
La Charité-sur-Loire,LA CHARITE-SUR-LOIRE,NIEVRE,3.024081968586024,47.17996120945426,O,O
Le Creusot-Montceau-Montchanin,ECUISSES,SAONE-ET-LOIRE,4.50064960662506,46.76533453918298,N,O
Turckheim,TURCKHEIM,HAUT-RHIN,7.279459288051582,48.0856031762113,O,O
Pommevic,POMMEVIC,TARN-ET-GARONNE,0.931623064334532,44.102332049703115,N,O
Moyeuvre-Grande,MOYEUVRE-GRANDE,MOSELLE,6.044076344753875,49.24672872651525,N,O
Gresswiller,GRESSWILLER,BAS-RHIN,7.42442392943557,48.533185884953646,O,O
Montauban-Ville-Bourbon,MONTAUBAN,TARN-ET-GARONNE,1.341127241507155,44.014195331668475,O,O
Arpajon,ARPAJON,ESSONNE,2.240991107437124,48.58603053676793,N,O
Riom-Châtel-Guyon,RIOM,PUY-DE-DOME,3.120954983054932,45.88979622425908,O,O
Sarlat,SARLAT-LA-CANEDA,DORDOGNE,1.218473948248141,44.87747517897749,N,O
Beynes,BEYNES,YVELINES,1.875845691637385,48.85939063028636,N,O
Le Cailar,LE CAILAR,GARD,4.234917595726394,43.68327665310768,N,O
Bouy,BOUY,MARNE,4.353159140006062,49.09120996227449,N,O
Serqueux,SERQUEUX,SEINE-MARITIME,1.539867032410759,49.63144625822911,O,O
Romilly-sur-Seine,ROMILLY-SUR-SEINE,AUBE,3.728722213291402,48.513931997995826,O,O
Arnage,ARNAGE,SARTHE,0.190168380795902,47.92854691202431,O,O
Montry-Condé,MONTRY,SEINE-ET-MARNE,2.826401469990249,48.89084863209177,N,O
St-Mars-la-Brière,SAINT-MARS-LA-BRIERE,SARTHE,0.365764787326713,48.028684482990606,N,O
Nouzonville,NOUZONVILLE,ARDENNES,4.742258644137013,49.81253486383028,O,O
Héricourt,HERICOURT,HAUTE-SAONE,6.769379068466185,47.57290940011784,O,O
Auneau,ROINVILLE,EURE-ET-LOIR,1.780181460127021,48.44606164180047,O,O
Milhac-d'Auberoche,BASSILLAC ET AUBEROCHE,DORDOGNE,0.918111452134353,45.129003315514105,N,O
Versailles-Chantiers,VERSAILLES,YVELINES,2.137060348306639,48.79540355080524,N,O
Sète,SETE,HERAULT,3.696608504888423,43.41279860027326,O,O
St-Georges-d'Aurac,MAZEYRAT-D'ALLIER,HAUTE-LOIRE,3.494734866149104,45.16047357280196,N,O
Roubaix,ROUBAIX,NORD,3.16326951649233,50.69597348869033,N,O
Maintenon,MAINTENON,EURE-ET-LOIR,1.592652613347552,48.585631049442,N,O
Sarreguemines,SARREGUEMINES,MOSELLE,7.06795583491842,49.10709954906073,O,O
Soultz-sous-Forêts,SOULTZ-SOUS-FORETS,BAS-RHIN,7.882363784547405,48.934542607292265,N,O
L'Arbresle,EVEUX,RHONE,4.618955339086357,45.83345242825749,N,O
Corseul-Languenan,LANGUENAN,COTES-D'ARMOR,-2.141517033211617,48.49595578157557,N,O
Villepreux-les-Clayes,LES CLAYES-SOUS-BOIS,YVELINES,1.992449549946879,48.82400399347824,N,O
Argenteuil,ARGENTEUIL,VAL-D'OISE,2.258090937400177,48.94656484661184,N,O
Faubourg-d'Orléans,ROMORANTIN-LANTHENAY,LOIR-ET-CHER,1.740234225606201,47.366833345124405,N,O
La Ferté-Bernard,LA FERTE-BERNARD,SARTHE,0.639121883809298,48.18646346433232,N,O
Auneau,ROINVILLE,EURE-ET-LOIR,1.779725836820988,48.44533925016616,O,O
Écully-la-Demi-Lune,TASSIN-LA-DEMI-LUNE,RHONE,4.779149852010692,45.765804076277306,N,O
Mignaloux-Nouaillé,MIGNALOUX-BEAUVOIR,VIENNE,0.411805714638493,46.52605001060868,N,O
Wisches,WISCHES,BAS-RHIN,7.270155332950564,48.507473185387894,N,O
Garancières-la-Queue,GARANCIERES,YVELINES,1.764818944087776,48.810431284633346,N,O
Servas-Lent,SERVAS,AIN,5.168057440790851,46.13072986388702,N,O
Servon,SERVON-SUR-VILAINE,ILLE-ET-VILAINE,-1.463135340881243,48.11223075302593,N,O
La Roche-Maurice,LA ROCHE-MAURICE,FINISTERE,-4.205224627646214,48.47408756928626,N,O
St-Erme,SAINT-ERME-OUTRE-ET-RAMECOURT,AISNE,3.8576210423604,49.52675556235464,O,O
Simiane,SIMIANE-COLLONGUE,BOUCHES-DU-RHONE,5.425818535192259,43.43473227186193,N,O
Hautmont,HAUTMONT,NORD,3.915571616258313,50.25397433616288,O,O
Dingé,DINGE,ILLE-ET-VILAINE,-1.68583203080833,48.350707672331545,N,O
Luxé,LUXE,CHARENTE,0.109284793647745,45.88729558439641,N,O
Les Salelles,LES SALELLES,LOZERE,3.279742536294395,44.48314521802582,N,O
Colombier-Fontaine,COLOMBIER-FONTAINE,DOUBS,6.689278127196173,47.45560582202106,N,O
Lafarge,SAINT-HILAIRE-LES-PLACES,HAUTE-VIENNE,1.130877718332544,45.63402822958635,N,O
Villeneuve-Loubet-Plage,VILLENEUVE-LOUBET,ALPES-MARITIMES,7.134325945371284,43.62959895644294,N,O
Monte-Carlo-Country-Club,ROQUEBRUNE-CAP-MARTIN,ALPES-MARITIMES,7.449142960112422,43.75494181488861,N,O
Le Buisson,LE BUISSON-DE-CADOUIN,DORDOGNE,0.908270932273613,44.84704908765859,N,O
Magnette,AUDES,ALLIER,2.60289881796548,46.46417168255882,N,O
Bretoncelles,BRETONCELLES,ORNE,0.892461068029912,48.43275436557967,O,O
Château-du-Loir,MONTVAL-SUR-LOIR,SARTHE,0.414969555973391,47.683149343227335,O,O
Calonne-Ricouart,CALONNE-RICOUART,PAS-DE-CALAIS,2.480203208283241,50.48212643550599,N,O
Issy,ISSY-LES-MOULINEAUX,HAUTS-DE-SEINE,2.259486994204301,48.81996502716657,N,O
Taillebourg,TAILLEBOURG,CHARENTE-MARITIME,-0.64442655928002,45.83016744694956,N,O
St-Jory,SAINT-JORY,HAUTE-GARONNE,1.371874881213429,43.737870732594786,O,O
Landas,LANDAS,NORD,3.290156478308408,50.468752121849114,N,O
Brandérion,BRANDERION,MORBIHAN,-3.194929491101136,47.78234896492175,N,O
Pierreville,PIERREVILLE,MEURTHE-ET-MOSELLE,6.12430206148356,48.54845061087395,N,O
Vincey,PORTIEUX,VOSGES,6.335742699948293,48.34329216369199,O,O
Culoz,CULOZ,AIN,5.77867320042856,45.842855056298575,O,O
St-Médard-de-Guizières,SAINT-MEDARD-DE-GUIZIERES,GIRONDE,-0.048395764469039,45.015509528318155,N,O
Dissay,DISSAY,VIENNE,0.42151164536195,46.70400862927564,N,O
Clichy-Levallois,LEVALLOIS-PERRET,HAUTS-DE-SEINE,2.297532711152023,48.89764856764411,N,O
Buzy-en-Béarn,BUZY,PYRENEES-ATLANTIQUES,-0.45583930872819,43.14821823375952,N,O
Sarralbe,SARRALBE,MOSELLE,7.036304224857277,49.000780360560775,N,O
Caudéran-Mérignac,BORDEAUX,GIRONDE,-0.627445536319426,44.84255397243456,N,O
Onzain-Chaumont-sur-Loire,VEUZAIN-SUR-LOIRE,LOIR-ET-CHER,1.186124412116244,47.49181168698501,N,O
Mont-sur-Meurthe,MONT-SUR-MEURTHE,MEURTHE-ET-MOSELLE,6.450133611525778,48.560084588633046,N,O
Bruz,BRUZ,ILLE-ET-VILAINE,-1.751863126756572,48.02873873088182,N,O
Fenouillet-St-Alban,FENOUILLET,HAUTE-GARONNE,1.401940561389737,43.683512927187195,N,O
Halsou-Larressore,HALSOU,PYRENEES-ATLANTIQUES,-1.428102997622267,43.37828240296839,N,O
Chauny,CHAUNY,AISNE,3.222547526526231,49.61049752439723,O,O
St-Rambert-d'Albon,SAINT-RAMBERT-D'ALBON,DROME,4.810325346753527,45.29798838978659,O,O
Laissey,LAISSEY,DOUBS,6.233693701063549,47.29914191592695,N,O
Pavilly,PAVILLY,SEINE-MARITIME,0.950549944741356,49.564018446137425,N,O
Bords,BORDS,CHARENTE-MARITIME,-0.798547000664882,45.89442546281429,N,O
Bornel-Belle-Église,BORNEL,OISE,2.207101582693562,49.19454069581452,N,O
Coussac-Bonneval,COUSSAC-BONNEVAL,HAUTE-VIENNE,1.311166875374606,45.50753132485294,N,O
Mer,MER,LOIR-ET-CHER,1.506291655453843,47.70594157519026,O,O
Niederbronn-les-Bains,NIEDERBRONN-LES-BAINS,BAS-RHIN,7.633761577554735,48.952343834316274,O,O
Sermizelles-Vézelay,GIVRY,YONNE,3.792894581811644,47.52886695431305,N,O
St-Léger-sur-Dheune,SAINT-LEGER-SUR-DHEUNE,SAONE-ET-LOIRE,4.628441766449198,46.84842517562792,N,O
Maule,MAULE,YVELINES,1.857318343026776,48.909242714227815,N,O
Choisy-le-Roi,CHOISY-LE-ROI,VAL-DE-MARNE,2.411226698475802,48.76373968002745,O,O
St-Étienne-de-Montluc,SAINT-ETIENNE-DE-MONTLUC,LOIRE-ATLANTIQUE,-1.78582059219356,47.274743472717994,O,O
Dunkerque,DUNKERQUE,NORD,2.369189693600089,51.02926760373617,O,O
Ambérieu,AMBERIEU-EN-BUGEY,AIN,5.342389581729003,45.95382301988311,O,O
Pouzauges,LA MEILLERAIE-TILLAY,VENDEE,-0.814155696992413,46.75251044463558,O,O
Rognac,ROGNAC,BOUCHES-DU-RHONE,5.230871961760132,43.48657785886441,O,O
Franois,FRANOIS,DOUBS,5.937512369273514,47.22742768303824,O,O
Corbie,CORBIE,SOMME,2.501546006343574,49.91247380855365,O,O
Nortkerque,NORTKERQUE,PAS-DE-CALAIS,2.023379597770227,50.88288290487031,N,O
Raedersheim,RAEDERSHEIM,HAUT-RHIN,7.284060687731498,47.88708451932602,N,O
Châtel-Censoir,CHATEL-CENSOIR,YONNE,3.635139936305949,47.53777617709835,O,O
Dangé,DANGE-SAINT-ROMAIN,VIENNE,0.608810660456076,46.93787613584683,N,O
Obermodern,OBERMODERN-ZUTZENDORF,BAS-RHIN,7.547134662886039,48.84206733643282,N,O
Les Perrières,VARENNES-VAUZELLES,NIEVRE,3.148438859602416,47.00616929165193,N,O
Barjac,BARJAC,LOZERE,3.410793616996402,44.49938407314612,N,O
Givors,GIVORS,RHONE,4.765926837773685,45.585119115441096,O,O
Orly-Ville,ORLY,VAL-DE-MARNE,2.402820407708256,48.74190927176978,N,O
Milly-sur-Thérain,MILLY-SUR-THERAIN,OISE,1.988638832384276,49.50386308300202,N,O
Le Cendre-Orcet,LE CENDRE,PUY-DE-DOME,3.188612056172235,45.72393096751502,N,O
Pontchâteau,PONTCHATEAU,LOIRE-ATLANTIQUE,-2.088383489771248,47.4363076121587,N,O
Gaillon-Aubevoye,LE VAL D'HAZEY,EURE,1.352437846350875,49.17476031524398,O,O
Belfort,BELFORT,TERRITOIRE-DE-BELFORT,6.854826206201642,47.631133133216515,O,O
Ciry-le-Noble,CIRY-LE-NOBLE,SAONE-ET-LOIRE,4.299610871448938,46.604063976569954,O,O
La Membrolle-sur-Choisille,SAINT-CYR-SUR-LOIRE,INDRE-ET-LOIRE,0.64095576385408,47.431232890399386,N,O
Wimille-Wimereux,WIMILLE,PAS-DE-CALAIS,1.613739796070267,50.764180866760626,N,O
Brunoy,BRUNOY,ESSONNE,2.505561391433407,48.700458760023,N,O
La Taye,SAINT-GEORGES-SUR-EURE,EURE-ET-LOIR,1.37368070148313,48.407905714722894,O,O
Erstein,ERSTEIN,BAS-RHIN,7.638508175326063,48.42329588472855,N,O
Avignon-Centre,AVIGNON,VAUCLUSE,4.805560023845281,43.94170748507306,O,O
Sens,SENS,YONNE,3.267375721688097,48.19875811256064,O,O
Épinay-sur-Seine TT,EPINAY-SUR-SEINE,SEINE-SAINT-DENIS,2.301875276622173,48.95426384411057,N,O
Charmes,CHARMES,VOSGES,6.301733373092041,48.378685295827026,O,O
Sin-le-Noble,SIN-LE-NOBLE,NORD,3.112610047358653,50.3565404644949,O,O
Pont-de-Veyle,CROTTET,AIN,4.890963569882367,46.26888112521243,N,O
Rai-Aube,RAI,ORNE,0.553722542868911,48.74376298436858,N,O
Tressin,TRESSIN,NORD,3.189459870932936,50.61212980136401,N,O
La Borne-Blanche,ORRY-LA-VILLE,OISE,2.50625898024577,49.1266367251084,N,O
Seltz,SELTZ,BAS-RHIN,8.098150966382955,48.896706059777365,N,O
Lagny-Thorigny,THORIGNY-SUR-MARNE,SEINE-ET-MARNE,2.70396715179194,48.88211331373947,N,O
Bourg-Madame,BOURG-MADAME,PYRENEES-ORIENTALES,1.948683978965734,42.432413339536566,N,O
Formerie,FORMERIE,OISE,1.722941150562096,49.654339909857434,N,O
Lamagistère,LAMAGISTERE,TARN-ET-GARONNE,0.825638491341149,44.126769874970755,N,O
La Roche-sur-Yon,LA ROCHE-SUR-YON,VENDEE,-1.435831476322877,46.67211489091913,O,O
Sarrebourg,SARREBOURG,MOSELLE,7.052269447443495,48.738716525799795,O,O
Marseillan-Plage,MARSEILLAN,HERAULT,3.536118058744602,43.31845834549076,N,O
La Faloise,LA FALOISE,SOMME,2.349101859669209,49.69692845714618,N,O
Montbazon,MONTBAZON,INDRE-ET-LOIRE,0.721463142318136,47.2917127564174,N,O
Le Havre-Graville,LE HAVRE,SEINE-MARITIME,0.160871799514422,49.49977111315972,N,O
Sérézin,SEREZIN-DU-RHONE,RHONE,4.81781390682531,45.6272306552306,N,O
Théoule-sur-Mer,THEOULE-SUR-MER,ALPES-MARITIMES,6.936842591444163,43.51340542778221,N,O
Roppenheim,BEINHEIM,BAS-RHIN,8.062358557900676,48.85122665677208,N,O
Montereau,VARENNES-SUR-SEINE,SEINE-ET-MARNE,2.934890007975593,48.38007498211493,O,O
Dieppe,DIEPPE,SEINE-MARITIME,1.079173723679496,49.91387618625112,O,O
Vendôme,VENDOME,LOIR-ET-CHER,1.067141369546662,47.80203153447201,O,O
Weyersheim,WEYERSHEIM,BAS-RHIN,7.797037500770733,48.71798070228709,N,O
Lurbe-St-Christau,LURBE-SAINT-CHRISTAU,PYRENEES-ATLANTIQUES,-0.60561423206694,43.12021264473371,N,O
Tenay-Hauteville,TENAY,AIN,5.500960316594447,45.92229568025614,N,O
Quesnoy-le-Montant,QUESNOY-LE-MONTANT,SOMME,1.702417123690925,50.10883000876429,N,O
St-Georges-de-Luzençon,SAINT-GEORGES-DE-LUZENCON,AVEYRON,2.983520239749485,44.066053581309056,N,O
Nuits-sous-Ravières,NUITS,YONNE,4.21125944802094,47.729784550261755,O,O
Frénouville-Cagny,FRENOUVILLE,CALVADOS,-0.260107811928255,49.14114275295679,N,O
Tincques,TINCQUES,PAS-DE-CALAIS,2.498152415554895,50.35701988330707,N,O
Andrésy,ANDRESY,YVELINES,2.049102056308881,48.974783703213305,N,O
Sain-Bel,SAIN-BEL,RHONE,4.601696786719716,45.81131820303853,N,O
Andelot,ANDELOT-EN-MONTAGNE,JURA,5.923500472361689,46.859632431022625,O,O
Fismes,FISMES,MARNE,3.682512960005394,49.31092384327646,O,O
Aytré-Plage,AYTRE,CHARENTE-MARITIME,-1.128490510325061,46.12763823824456,N,O
Marquise-Rinxent,RINXENT,PAS-DE-CALAIS,1.731516881842938,50.805390655180474,O,O
St-Laurent-de-la-Prée,SAINT-LAURENT-DE-LA-PREE,CHARENTE-MARITIME,-1.02863401853472,45.9937452820728,N,O
Cysoing,CYSOING,NORD,3.209799283111922,50.56212001274801,N,O
Rue,RUE,SOMME,1.675883430987883,50.27317576435751,O,O
Parsac-Gouzon,PARSAC-RIMONDEIX,CREUSE,2.174491349164221,46.198338942829395,N,O
Asnières-sur-Seine,ASNIERES-SUR-SEINE,HAUTS-DE-SEINE,2.284017731281219,48.905232163368915,N,O
Saléchan-Siradan,SALECHAN,HAUTES-PYRENEES,0.631314102025302,42.96291183671216,N,O
Herrlisheim,HERRLISHEIM,BAS-RHIN,7.91032804035035,48.72764651099049,O,O
Lacourtensourt,TOULOUSE,HAUTE-GARONNE,1.414292386126725,43.66339943474069,N,O
Luçon,LUCON,VENDEE,-1.167425227287922,46.46372375938148,N,O
Issoire,ISSOIRE,PUY-DE-DOME,3.254208169172224,45.54410777430989,O,O
Don-Sainghin,SAINGHIN-EN-WEPPES,NORD,2.913916751647385,50.55170521740868,O,O
Évron,EVRON,MAYENNE,-0.396952715882117,48.155693198678215,N,O
Château-l'Évêque,CHATEAU-L'EVEQUE,DORDOGNE,0.688278412544716,45.24450264334011,N,O
Loriol,LORIOL-SUR-DROME,DROME,4.816948130049003,44.754434398743,N,O
Pontoise,SAINT-OUEN-L'AUMONE,VAL-D'OISE,2.101952622247184,49.04556871447304,N,O
Carcassonne,CARCASSONNE,AUDE,2.352986949598741,43.21826921559891,O,O
La Ménitré,LA MENITRE,MAINE-ET-LOIRE,-0.275982998842375,47.39730385204992,N,O
Courthézon,COURTHEZON,VAUCLUSE,4.888305271096914,44.08991024825616,N,O
Le Luc-et-Le Cannet,LE CANNET-DES-MAURES,VAR,6.343171762065989,43.39025127371896,O,O
Jarville-la-Malgrange,JARVILLE-LA-MALGRANGE,MEURTHE-ET-MOSELLE,6.198019041403032,48.672218883839285,O,O
Joué-lès-Tours,JOUE-LES-TOURS,INDRE-ET-LOIRE,0.668048618706485,47.35423134182372,O,O
Vallon,VALLON-EN-SULLY,ALLIER,2.611578434656199,46.53584074318068,N,O
Breitenbach,BREITENBACH-HAUT-RHIN,HAUT-RHIN,7.104295712202981,48.02854863110893,N,O
Galuzot,SAINT-VALLIER,SAONE-ET-LOIRE,4.330078799105821,46.64206758507911,N,O
Ormoy-Villers,ORMOY-VILLERS,OISE,2.837270197544007,49.20030985584815,O,O
Bénestroff,BENESTROFF,MOSELLE,6.750598020177406,48.90618393340398,N,O
Véretz-Montlouis,MONTLOUIS-SUR-LOIRE,INDRE-ET-LOIRE,0.819956989593012,47.37145594225696,N,O
Colmar,COLMAR,HAUT-RHIN,7.346943397726597,48.073172281691434,O,O
Arras,ARRAS,PAS-DE-CALAIS,2.781966934851946,50.28649576680664,O,O
Fauga,LE FAUGA,HAUTE-GARONNE,1.281942062462138,43.403613407313415,N,O
Oyonnax,OYONNAX,AIN,5.653142488148597,46.25955306243293,N,O
Montataire,MONTATAIRE,OISE,2.436213399898783,49.25117482036241,N,O
Courcay-Tauxigny,COURCAY,INDRE-ET-LOIRE,0.867626446644848,47.23783327127832,N,O
Avenue-du-Président-Kennedy-Radio-France,PARIS,PARIS,2.280643922537805,48.85303782778344,N,O
Salses,SALSES-LE-CHATEAU,PYRENEES-ORIENTALES,2.917412907106511,42.83556456554592,N,O
Égly,EGLY,ESSONNE,2.222189294095017,48.58241085152793,N,O
Oissel,OISSEL,SEINE-MARITIME,1.102282900837311,49.34305349147479,O,O
Ronchin,RONCHIN,NORD,3.077597498635683,50.60386936172255,O,O
La Rochelle-Ville,LA ROCHELLE,CHARENTE-MARITIME,-1.145160124084131,46.15251607781638,O,O
Le Creusot,LE CREUSOT,SAONE-ET-LOIRE,4.429992290925032,46.80844586039034,O,O
Xertigny,XERTIGNY,VOSGES,6.37677531207038,48.05271777207109,N,O
Villefort,VILLEFORT,LOZERE,3.924035262276116,44.43946205033167,N,O
Aspres-sur-Buëch,ASPRES-SUR-BUECH,HAUTES-ALPES,5.754737548287199,44.51887419082761,N,O
St-Amarin,SAINT-AMARIN,HAUT-RHIN,7.028770938676973,47.87280143803592,N,O
Nomain-Ouvignies,NOMAIN,NORD,3.230767343182578,50.50630334669699,N,O
Damblain,DAMBLAIN,VOSGES,5.656347039138558,48.09380678341434,N,O
Frépillon,FREPILLON,VAL-D'OISE,2.197110568848926,49.04606750590012,N,O
Héricy,HERICY,SEINE-ET-MARNE,2.760790270292531,48.44270678491386,N,O
Sains-du-Nord,SAINS-DU-NORD,NORD,4.001577664406883,50.08866973398011,N,O
Lutzelbourg,LUTZELBOURG,MOSELLE,7.251833009492623,48.72984688834491,N,O
Carnoules,CARNOULES,VAR,6.186694957665186,43.29747018644669,N,O
Orange,ORANGE,VAUCLUSE,4.819662378820437,44.1374468337854,O,O
Lamotte-Beuvron,LAMOTTE-BEUVRON,LOIR-ET-CHER,2.021745208670846,47.595988032342866,O,O
Albert,ALBERT,SOMME,2.644582576895565,50.00586126934948,O,O
Bourges,BOURGES,CHER,2.394323091295934,47.09461813661659,O,O
Pagny-sur-Moselle,PAGNY-SUR-MOSELLE,MEURTHE-ET-MOSELLE,6.025818645207068,48.98569467337148,O,O
Solignac-Le Vigen,LE VIGEN,HAUTE-VIENNE,1.284637857090242,45.756732062197486,N,O
Cravant-Bazarnes,BAZARNES,YONNE,3.680855844379947,47.679545214866515,O,O
Nice-St-Augustin,NICE,ALPES-MARITIMES,7.216446678038527,43.670674336256205,N,O
La Bohalle,LOIRE-AUTHION,MAINE-ET-LOIRE,-0.40079504767026,47.43443992670813,N,O
Frévin-Capelle,FREVIN-CAPELLE,PAS-DE-CALAIS,2.633359694784462,50.34727761405151,N,O
Valenciennes,VALENCIENNES,NORD,3.51563327295449,50.362305045520365,O,O
Lyon-Perrache,LYON,RHONE,4.825673533833033,45.74842155203028,N,O
Ambazac,AMBAZAC,HAUTE-VIENNE,1.408664883191938,45.9537576316964,O,O
Chambourg,CHAMBOURG-SUR-INDRE,INDRE-ET-LOIRE,0.9654243523727,47.18165119449651,N,O
Gazeran,GAZERAN,YVELINES,1.771844196891519,48.62596796469673,N,O
Hoelschloch,SURBOURG,BAS-RHIN,7.831675226651149,48.91627697145677,N,O
Trois-Chênes,BELFORT,TERRITOIRE-DE-BELFORT,6.846764311624177,47.647071068121114,N,O
Briare,BRIARE,LOIRET,2.7336930262485,47.64646201241365,N,O
Saubusse-les-Bains,SAUBUSSE,LANDES,-1.190278050445025,43.66023352899588,N,O
Bourg-en-Bresse,BOURG-EN-BRESSE,AIN,5.216140511660101,46.19574253911553,O,O
Poix-Terron,POIX-TERRON,ARDENNES,4.636807636125961,49.650586484650105,N,O
Avenue-Henri-Martin,PARIS,PARIS,2.272147611301899,48.864346280061504,N,O
Échirolles,ECHIROLLES,ISERE,5.719928252527468,45.15277648368396,N,O
Longueil-Annel,LONGUEIL-ANNEL,OISE,2.863090761758719,49.46699872833922,N,O
Brimeux,BRIMEUX,PAS-DE-CALAIS,1.831495852912389,50.447051735242525,N,O
Le Bruel,ESCLANEDES,LOZERE,3.358285462411876,44.48120990149364,N,O
Athis-Mons,ATHIS-MONS,ESSONNE,2.402101452555594,48.71125468767963,N,O
Le Bosquet,CANNES,ALPES-MARITIMES,6.982257923482912,43.550725530415555,N,O
Montaut-Bétharram,MONTAUT,PYRENEES-ATLANTIQUES,-0.198106129619514,43.12666357843489,N,O
Salomé,SALOME,NORD,2.835891433734821,50.54133466245365,N,O
Rochefort,ROCHEFORT,CHARENTE-MARITIME,-0.963548062025048,45.94746632056426,O,O
Harfleur,HARFLEUR,SEINE-MARITIME,0.199062909348195,49.51361089029776,N,O
St-Antoine-du-Rocher,SAINT-ANTOINE-DU-ROCHER,INDRE-ET-LOIRE,0.616536750634198,47.503885064078,N,O
Cassis,CASSIS,BOUCHES-DU-RHONE,5.553191943191577,43.234103170066064,O,O
Vauzelles,VARENNES-VAUZELLES,NIEVRE,3.134367946645677,47.00137653347217,N,O
Ruelle,RUELLE-SUR-TOUVRE,CHARENTE,0.22134335904864,45.67634469073504,O,O
Mouans-Sartoux,MOUANS-SARTOUX,ALPES-MARITIMES,6.974387833892344,43.6202661356587,N,O
Lavilletertre,LAVILLETERTRE,OISE,1.920731577030679,49.20261024930564,N,O
St-Yrieix,SAINT-YRIEIX-LA-PERCHE,HAUTE-VIENNE,1.205694843375046,45.519049662187314,O,O
Langeac,LANGEAC,HAUTE-LOIRE,3.490565120059909,45.10107825695581,O,O
Bougival,LA CELLE-SAINT-CLOUD,YVELINES,2.132167367768379,48.85424085579581,N,O
St-Romain-de-Popey,SAINT-ROMAIN-DE-POPEY,RHONE,4.542261792981238,45.861718403451064,N,O
Dieppe,DIEPPE,SEINE-MARITIME,1.081412809091867,49.91676041680653,O,O
Farébersviller,FAREBERSVILLER,MOSELLE,6.861820538036602,49.11808246196308,N,O
Pagny-sur-Meuse,PAGNY-SUR-MEUSE,MEUSE,5.735490402202477,48.69607193152515,O,O
Rivesaltes,RIVESALTES,PYRENEES-ORIENTALES,2.867751282195064,42.7663405557871,O,O
Poix-de-Picardie,POIX-DE-PICARDIE,SOMME,1.989866923165017,49.777922790961775,O,O
Gros-Noyer-St-Prix,ERMONT,VAL-D'OISE,2.259094504899251,48.99681837552061,N,O
Taverny,TAVERNY,VAL-D'OISE,2.22158347536852,49.02528263878814,N,O
St-Martin-du-Touch,TOULOUSE,HAUTE-GARONNE,1.371418238264211,43.59985959731222,N,O
St-Médard-d'Eyrans,SAINT-MEDARD-D'EYRANS,GIRONDE,-0.504315934350068,44.715684282411154,N,O
Clères,BEAUTOT,SEINE-MARITIME,1.046092453274377,49.63294806101344,N,O
Montoir-de-Bretagne,MONTOIR-DE-BRETAGNE,LOIRE-ATLANTIQUE,-2.161601267156341,47.32074062561389,O,O
Lantenay,LANTENAY,COTE-D'OR,4.861075071153688,47.33511851420344,N,O
Hachette,LOCQUIGNOL,NORD,3.743209619904144,50.15820001748976,N,O
Glos-Montfort,GLOS-SUR-RISLE,EURE,0.682915013085162,49.271289521705874,O,O
St-Chamond,SAINT-CHAMOND,LOIRE,4.517096513613868,45.47242263210801,N,O
St-Hilaire-St-Nazaire,SAINT-HILAIRE-DU-ROSIER,ISERE,5.243897687873892,45.07152379259458,N,O
Aulnoye-Aymeries,AULNOYE-AYMERIES,NORD,3.843683630210112,50.19717322440107,O,O
Fourmies,FOURMIES,NORD,4.053821786681315,50.01523215505039,O,O
Pontcharra-sur-Breda-Allevard,PONTCHARRA,ISERE,6.00771208061662,45.43408981286293,O,O
Lunel-Viel,LUNEL-VIEL,HERAULT,4.09361390027053,43.68112696285351,N,O
Penhoët,SAINT-NAZAIRE,LOIRE-ATLANTIQUE,-2.200785505885233,47.29047012989129,N,O
Lamure-sur-Azergues,LAMURE-SUR-AZERGUES,RHONE,4.492313405103372,46.06105246915765,N,O
Clamecy,CLAMECY,NIEVRE,3.52059693667432,47.466740174528674,O,O
St-Avre-la-Chambre,SAINT-AVRE,SAVOIE,6.303406681231636,45.35275717079339,O,O
Les Trillers,VAUX,ALLIER,2.599907234080537,46.41455303110547,N,O
Guignicourt,VILLENEUVE-SUR-AISNE,AISNE,3.961335731591036,49.43440304172821,O,O
Felletin,FELLETIN,CREUSE,2.169456195182989,45.88650240885839,O,O
Nogent-l'Artaud-Charly,NOGENT-L'ARTAUD,AISNE,3.322361564902094,48.96865518202849,O,O
Laveline-devant-Bruyères,LAVELINE-DEVANT-BRUYERES,VOSGES,6.75522755899135,48.185506805863106,N,O
Verneuil-sur-Serre,VERNEUIL-SUR-SERRE,AISNE,3.666258430210547,49.64702811623633,N,O
Bitschwiller (Haut-Rhin),BITSCHWILLER-LES-THANN,HAUT-RHIN,7.07825223339086,47.82770586464642,N,O
Montigny-en-Ostrevent,MONTIGNY-EN-OSTREVENT,NORD,3.188313413743694,50.361323615409574,N,O
Roanne,ROANNE,LOIRE,4.06306753627084,46.03936961727752,O,O
Lyon-Part-Dieu,LYON,RHONE,4.860200803130667,45.76054053999095,O,O
St-Étienne-Bellevue,SAINT-ETIENNE,LOIRE,4.392583638096013,45.41686015623034,O,O
Culmont-Chalindrey,CHALINDREY,HAUTE-MARNE,5.448167554514215,47.80671574883246,O,O
Parent-Coudes-Champeix,PARENT,PUY-DE-DOME,3.216704735574016,45.61418782407018,N,O
Wambaix,WAMBAIX,NORD,3.311230613377989,50.13385784297831,N,O
Garges-Sarcelles,GARGES-LES-GONESSE,VAL-D'OISE,2.391164835206995,48.97725713426417,N,O
Gourdon,GOURDON,LOT,1.389532573134262,44.74128735294577,N,O
Nançois-Tronville,NANCOIS-SUR-ORNAIN,MEUSE,5.291378086944519,48.71786860549125,O,O
Aubazine-St-Hilaire,SAINT-HILAIRE-PEYROUX,CORREZE,1.641852270895048,45.1817867684608,N,O
Gièvres,GIEVRES,LOIR-ET-CHER,1.66813603974657,47.278892429826755,O,O
Bagnols-Chadenet,CHADENET,LOZERE,3.628354122404666,44.528613895562785,N,O
Lalande-Église,TOULOUSE,HAUTE-GARONNE,1.429055927697945,43.645392206401745,N,O
Genech,GENECH,NORD,3.220479480723978,50.53091976111437,N,O
Schweighouse-sur-Moder,SCHWEIGHOUSE-SUR-MODER,BAS-RHIN,7.741946133955294,48.828951234919714,O,O
Bauvin-Provin,BAUVIN,NORD,2.90504075604601,50.51167305704527,N,O
Labège-Innopole,LABEGE,HAUTE-GARONNE,1.51326637657675,43.547049886392934,N,O
Yvetot,YVETOT,SEINE-MARITIME,0.750127475011409,49.62220857990937,N,O
Cholet,CHOLET,MAINE-ET-LOIRE,-0.870296423545569,47.06618658131302,O,O
St-Martin-le-Beau,SAINT-MARTIN-LE-BEAU,INDRE-ET-LOIRE,0.905859176101644,47.355075610579306,N,O
Ste-Bazeille,SAINTE-BAZEILLE,LOT-ET-GARONNE,0.092992449843815,44.53251019758875,N,O
Vis-à-Marles,MARLES-LES-MINES,PAS-DE-CALAIS,2.516022310523782,50.50414272658824,N,O
Fleurieux-sur-l'Arbresle,FLEURIEUX-SUR-L'ARBRESLE,RHONE,4.660592553132625,45.844585178584154,N,O
Rémilly,REMILLY,MOSELLE,6.394345586280259,49.01466094107639,O,O
Nonancourt,NONANCOURT,EURE,1.192839793195551,48.77560726857136,N,O
St-Hilaire-au-Temple,SAINT-HILAIRE-AU-TEMPLE,MARNE,4.379403411513751,49.05571428739564,O,O
St-Quentin-en-Yvelines,MONTIGNY-LE-BRETONNEUX,YVELINES,2.044976435504766,48.78778463203433,N,O
Avenue-Foch,PARIS,PARIS,2.2755053026993,48.87095631866803,N,O
Urt,URT,PYRENEES-ATLANTIQUES,-1.299916389086193,43.499391481706006,N,O
Yutz,YUTZ,MOSELLE,6.20959781720118,49.3611457256616,N,O
St-Claude,SAINT-CLAUDE,JURA,5.860136354027906,46.389928864056245,N,O
Chasseneuil-sur-Bonnieure,CHASSENEUIL-SUR-BONNIEURE,CHARENTE,0.453604554126945,45.824234859933554,N,O
Rosny-Bois-Perrier,ROSNY-SOUS-BOIS,SEINE-SAINT-DENIS,2.481478166402765,48.88247987492721,N,O
Asnières-sur-Seine,ASNIERES-SUR-SEINE,HAUTS-DE-SEINE,2.284368840588698,48.905631851894405,N,O
Veigné,VEIGNE,INDRE-ET-LOIRE,0.734442350054996,47.2915030694559,N,O
St-Leu-la-Forêt,SAINT-LEU-LA-FORET,VAL-D'OISE,2.242717056237729,49.01541026276837,N,O
Busigny,BUSIGNY,NORD,3.445911192196971,50.03964988498478,N,O
Nanterre-Université,NANTERRE,HAUTS-DE-SEINE,2.207658698986693,48.89912157677641,N,O
Beaugency,BEAUGENCY,LOIRET,1.625906566109927,47.77848609520921,N,O
Paris-St-Lazare,PARIS,PARIS,2.325152694046312,48.876646819628434,N,O
Esches,ESCHES,OISE,2.170617493219589,49.21248581843525,N,O
Aiguebelle,VAL-D'ARC,SAVOIE,6.306820208917644,45.543891485387576,O,O
Plaisir-Grignon,PLAISIR,YVELINES,1.941465946324533,48.83212814038709,N,O
St-Denis-près-Martel,SAINT-DENIS-LES-MARTEL,LOT,1.666495861437176,44.94571803823343,N,O
Rungis-la-Fraternelle,RUNGIS,VAL-DE-MARNE,2.352899162059443,48.740439993955135,N,O
Colmar,COLMAR,HAUT-RHIN,7.346746102147759,48.07270603729139,O,O
Boussens,BOUSSENS,HAUTE-GARONNE,0.97176452643156,43.1790743815484,O,O
Guérard-La Celle-sur-Morin,GUERARD,SEINE-ET-MARNE,2.954761856629998,48.81043906077055,N,O
Bléré-la-Croix,LA CROIX-EN-TOURAINE,INDRE-ET-LOIRE,0.987842992120873,47.33784724899481,N,O
Drusenheim,DRUSENHEIM,BAS-RHIN,7.94772836798574,48.76599900112702,N,O
St-Symphorien-de-Marmagne,SAINT-SYMPHORIEN-DE-MARMAGNE,SAONE-ET-LOIRE,4.337183795256776,46.84439824599816,N,O
Mohon,CHARLEVILLE-MEZIERES,ARDENNES,4.732672601969852,49.753068017671595,O,O
Rethel,RETHEL,ARDENNES,4.370261280952036,49.50463379393168,O,O
Lexos,VAREN,TARN-ET-GARONNE,1.886266293554495,44.142185505430454,O,O
Arrou,COMMUNE NOUVELLE D'ARROU,EURE-ET-LOIR,1.128644199449027,48.099909512369685,O,O
Ozoir-la-Ferrière,OZOIR-LA-FERRIERE,SEINE-ET-MARNE,2.69037988331879,48.770613142466054,N,O
Boutigny,BOUTIGNY-SUR-ESSONNE,ESSONNE,2.376208883581087,48.43492164536152,N,O
Cannes,CANNES,ALPES-MARITIMES,7.018725988316509,43.55401070550098,N,O
Benfeld,BENFELD,BAS-RHIN,7.584028888287825,48.373645029444205,N,O
Émerainville-Pontault-Combault,EMERAINVILLE,SEINE-ET-MARNE,2.617509201759023,48.80640786419705,O,O
Tarascon-sur-Ariège,TARASCON-SUR-ARIEGE,ARIEGE,1.599986444337187,42.849488340290144,O,O
Limersheim,HIPSHEIM,BAS-RHIN,7.659682253417969,48.46072588082999,N,O
St-Sulpice-Auteuil,SAINT-SULPICE,OISE,2.116130156618064,49.34736621410171,N,O
Onville,ONVILLE,MEURTHE-ET-MOSELLE,5.978985724179793,49.013209436990586,N,O
Prouvy-Thiant,PROUVY,NORD,3.459326618700148,50.31625428283117,O,O
Pontgibaud,PONTGIBAUD,PUY-DE-DOME,2.845794809271947,45.82094297808272,N,O
Les Aubrais-Orléans,FLEURY-LES-AUBRAIS,LOIRET,1.906134499897258,47.92731972022334,O,O
Ste-Colombe-Septveilles,SAINTE-COLOMBE,SEINE-ET-MARNE,3.255707734379226,48.52933650008643,N,O
Remise-à-Jorelle,BONDY,SEINE-SAINT-DENIS,2.485832518295548,48.89286804531261,N,O
Amifontaine,AMIFONTAINE,AISNE,3.910682169327863,49.484696626763025,O,O
Gardanne,GARDANNE,BOUCHES-DU-RHONE,5.463066937600604,43.456060550262265,O,O
Tiercé,TIERCE,MAINE-ET-LOIRE,-0.469527770762688,47.61762163363005,O,O
Longwy,LONGWY,MEURTHE-ET-MOSELLE,5.769063219490987,49.513019055374734,O,O
Nogent-sur-Vernisson,NOGENT-SUR-VERNISSON,LOIRET,2.737638801576194,47.852817399652515,O,O
Grésy-sur-Isère,GRESY-SUR-ISERE,SAVOIE,6.259966501812202,45.59447574604259,N,O
Azay-sur-Cher,MONTLOUIS-SUR-LOIRE,INDRE-ET-LOIRE,0.860084460645466,47.36514009217122,N,O
Hazebrouck,HAZEBROUCK,NORD,2.541608461495844,50.72516743755126,O,O
Tantonville,TANTONVILLE,MEURTHE-ET-MOSELLE,6.129209733482396,48.48391111134653,N,O
Villefranche-de-Rouergue,VILLEFRANCHE-DE-ROUERGUE,AVEYRON,2.037141060417348,44.34765567400817,O,O
Vraincourt-Viéville,VRAINCOURT,HAUTE-MARNE,5.123890814608322,48.23687562456275,N,O
Cenon,CENON,GIRONDE,-0.533609161141981,44.855856098578435,N,O
Taconnaz,LES HOUCHES,HAUTE-SAVOIE,6.826163255122993,45.89940561382989,N,O
Agay,SAINT-RAPHAEL,VAR,6.856677171132541,43.43173425214465,N,O
St-Hilaire-de-Riez,SAINT-HILAIRE-DE-RIEZ,VENDEE,-1.949563777771351,46.716638184040235,N,O
La Mothe-Achard,LES ACHARDS,VENDEE,-1.658030677879772,46.606836768165,O,O
Ruffec,RUFFEC,CHARENTE,0.190190433044826,46.030631454150175,N,O
Cesson-Sévigné,CESSON-SEVIGNE,ILLE-ET-VILAINE,-1.602579702384093,48.11257394590477,N,O
St-Germain-St-Rémy,SAINT-GERMAIN-SUR-AVRE,EURE-ET-LOIR,1.256292124313499,48.75891457670912,N,O
Givet,GIVET,ARDENNES,4.817813644678012,50.14091292925688,O,O
Montbarrey,MONTBARREY,JURA,5.63696028235218,47.03595789195915,N,O
Villiers-Neauphle-Pontchartrain,VILLIERS-SAINT-FREDERIC,YVELINES,1.877545105122548,48.81527539849273,N,O
St-Pol-sur-Ternoise,SAINT-POL-SUR-TERNOISE,PAS-DE-CALAIS,2.339890160465944,50.378797205158335,O,O
Villeparisis,MITRY-MORY,SEINE-ET-MARNE,2.60284772676128,48.953093201420536,O,O
Rive-de-Gier,RIVE-DE-GIER,LOIRE,4.606590608322465,45.52441080442122,N,O
Herbitzheim,HERBITZHEIM,BAS-RHIN,7.080044235721791,49.01391073690704,N,O
Ambronay-Priay,AMBRONAY,AIN,5.338096365361949,46.011532101209326,O,O
Feuquières-Broquiers,FEUQUIERES,OISE,1.831068318577522,49.65451312832422,N,O
Roquesérière,BUZET-SUR-TARN,HAUTE-GARONNE,1.619120418708056,43.75091727790952,N,O
Compans,COMPANS,SEINE-ET-MARNE,2.665193676704041,48.99145892447891,N,O
Jassonneix,MEYMAC,CORREZE,2.139708744591707,45.543611127124315,N,O
Magneux-Courlandon,MAGNEUX,MARNE,3.733829606171373,49.30993983854904,N,O
Fourchambault,FOURCHAMBAULT,NIEVRE,3.087354290727787,47.01894369811664,O,O
Couëron,COUERON,LOIRE-ATLANTIQUE,-1.723455787961951,47.2219940667114,N,O
Ogeu-les-Bains,OGEU-LES-BAINS,PYRENEES-ATLANTIQUES,-0.507444616092045,43.15387465751689,N,O
Mérenvielle,MERENVIELLE,HAUTE-GARONNE,1.15064117004484,43.63658276888126,N,O
Err,ERR,PYRENEES-ORIENTALES,2.028889250014868,42.442767182008296,N,O
Woincourt,WOINCOURT,SOMME,1.537154580238334,50.05873568303048,N,O
Montrond-les-Bains,MONTROND-LES-BAINS,LOIRE,4.246780889554222,45.64417965687003,O,O
La Ville-Gozet,MONTLUCON,ALLIER,2.591874096585813,46.349941305335584,N,O
La Réole,LA REOLE,GIRONDE,-0.030795563825907,44.57976680184522,N,O
Villeperdue,VILLEPERDUE,INDRE-ET-LOIRE,0.633680639387541,47.20196092222494,O,O
L'Estaque,MARSEILLE,BOUCHES-DU-RHONE,5.321401300743806,43.36379407229317,N,O
Nomain,NOMAIN,NORD,3.20696531344309,50.50232592962645,N,O
St-Bonnet-de-Rochefort,SAINT-BONNET-DE-ROCHEFORT,ALLIER,3.139628459846439,46.148424266054526,N,O
Roche-lez-Beaupré,ROCHE-LEZ-BEAUPRE,DOUBS,6.110782365332249,47.276176841013154,N,O
Les Ardoines,VITRY-SUR-SEINE,VAL-DE-MARNE,2.409733390091427,48.78101578405993,N,O
Conflans-Fin-d'Oise,CONFLANS-SAINTE-HONORINE,YVELINES,2.07503728058043,48.991929538078026,O,O
Lus-la-Croix-Haute,LUS-LA-CROIX-HAUTE,DROME,5.697075587759043,44.67041983913662,N,O
Aiguillon,AIGUILLON,LOT-ET-GARONNE,0.335088190663227,44.29876017586198,N,O
Ossès-St-Martin-d'Arrossa,SAINT-MARTIN-D'ARROSSA,PYRENEES-ATLANTIQUES,-1.304959311352246,43.23531217340688,N,O
Couliboeuf,MORTEAUX-COULIBUF,CALVADOS,-0.09829564495577,48.92358252889923,N,O
Salles-Courbatiès,SALLES-COURBATIES,AVEYRON,2.079196516726654,44.47551460594185,N,O
St-Médard-sur-Ille,SAINT-MEDARD-SUR-ILLE,ILLE-ET-VILAINE,-1.667513154566356,48.27430081843578,N,O
Longueville-sur-Scie,LONGUEVILLE-SUR-SCIE,SEINE-MARITIME,1.110611610207286,49.79175692319872,N,O
Ham,MUILLE-VILLETTE,SOMME,3.070957119074588,49.73954337157027,O,O
Revigny,REVIGNY-SUR-ORNAIN,MEUSE,4.985835511229858,48.82402651318643,O,O
Crépieux-la-Pape,RILLIEUX-LA-PAPE,RHONE,4.892579585676238,45.80367773368057,N,O
St-Junien,SAINT-JUNIEN,HAUTE-VIENNE,0.900404655614266,45.88137862112438,N,O
Lérouville,LEROUVILLE,MEUSE,5.538682641261615,48.79706696043889,O,O
St-Marcel-en-Dombes,SAINT-MARCEL,AIN,4.977986862920747,45.95061360872407,N,O
Gestel,GESTEL,MORBIHAN,-3.44324095590144,47.803068578129064,N,O
Lons-le-Saunier,LONS-LE-SAUNIER,JURA,5.550572824137999,46.66835586803146,O,O
Lussac-les-Châteaux,LUSSAC-LES-CHATEAUX,VIENNE,0.71857024733858,46.40523304718363,O,O
Siorac-en-Périgord,SIORAC-EN-PERIGORD,DORDOGNE,0.987829145665422,44.81996737198574,N,O
Dives-sur-Mer-Port-Guillaume,DIVES-SUR-MER,CALVADOS,-0.100875407999264,49.291027308934474,N,O
Bourbourg,BOURBOURG,NORD,2.195861554347714,50.95273042792849,N,O
Koenigsmacker,KNIGSMACKER,MOSELLE,6.273479020895914,49.396556194681395,N,O
Aubusson,AUBUSSON,CREUSE,2.160766800262103,45.96053639366277,N,O
Illiers-Combray,ILLIERS-COMBRAY,EURE-ET-LOIR,1.244991738182824,48.30423923863092,O,O
La Gouesnière-Cancale,SAINT-MELOIR-DES-ONDES,ILLE-ET-VILAINE,-1.905891460997182,48.614414370580015,N,O
Langres,LANGRES,HAUTE-MARNE,5.336121359432057,47.88206215858669,O,O
Laifour,LAIFOUR,ARDENNES,4.692175188420022,49.91097533133588,N,O
L'Isle-Jourdain,L'ISLE-JOURDAIN,GERS,1.089858772280073,43.61726804056734,N,O
Grandvillars,GRANDVILLARS,TERRITOIRE-DE-BELFORT,6.978583696399005,47.53771038419882,N,O
Moult-Argences,MOULT-CHICHEBOVILLE,CALVADOS,-0.186414347002698,49.111082202749095,O,O
Les Moussoux,CHAMONIX-MONT-BLANC,HAUTE-SAVOIE,6.85756771646658,45.91621088758126,N,O
Baccarat,BACCARAT,MEURTHE-ET-MOSELLE,6.744278755021462,48.4519963378768,N,O
Ménil-Flin,FLIN,MEURTHE-ET-MOSELLE,6.659235811497861,48.50500295101705,N,O
Bazancourt,BAZANCOURT,MARNE,4.174495614115393,49.36137467424595,O,O
Batz-sur-Mer,BATZ-SUR-MER,LOIRE-ATLANTIQUE,-2.479068344361024,47.280949556005034,N,O
L'Estaque,MARSEILLE,BOUCHES-DU-RHONE,5.321365695857461,43.363795215107366,N,O
L'Ariane,LA TRINITE,ALPES-MARITIMES,7.30232056792475,43.734270177036535,N,O
Dax,DAX,LANDES,-1.050345245238319,43.72090050902884,N,O
St-Pierre-des-Corps,SAINT-PIERRE-DES-CORPS,INDRE-ET-LOIRE,0.725081914342086,47.385843594997674,O,O
Moulin-Galant,CORBEIL-ESSONNES,ESSONNE,2.473539962733294,48.58616345487804,N,O
Connerré-Beillé,BEILLE,SARTHE,0.486966663978344,48.07384329531561,O,O
Romilly-la-Puthenaye,ROMILLY-LA-PUTHENAYE,EURE,0.855438127775816,49.003580561735056,N,O
Écouen-Ézanville,EZANVILLE,VAL-D'OISE,2.363180961506846,49.02256855914811,N,O
Orry-la-Ville-Coye,ORRY-LA-VILLE,OISE,2.489245364728153,49.13934197598411,N,O
Blonville-sur-Mer-Benerville,BLONVILLE-SUR-MER,CALVADOS,0.035479261871257,49.33133620527306,N,O
Gilly-sur-Loire,GILLY-SUR-LOIRE,SAONE-ET-LOIRE,3.782078688484614,46.537250248153086,O,O
Franconville-Plessis-Bouchard,FRANCONVILLE,VAL-D'OISE,2.234923357938164,48.993432537959954,N,O
Trémolat,TREMOLAT,DORDOGNE,0.830416345032821,44.86233058843827,N,O
Souillac,SOUILLAC,LOT,1.466052524801962,44.90233983892782,O,O
Drancy,DRANCY,SEINE-SAINT-DENIS,2.455728744770558,48.93258830270887,N,O
Commercy,COMMERCY,MEUSE,5.588524217206084,48.76592141350516,O,O
Sierck-les-Bains,SIERCK-LES-BAINS,MOSELLE,6.350145410078853,49.444008140882424,O,O
Grenoble,GRENOBLE,ISERE,5.714516819858535,45.19083025228243,O,O
St-Vincent-le-Château,SAINT-VINCENT,HAUTE-LOIRE,3.918787654113014,45.1500603674364,N,O
Vayrac,VAYRAC,LOT,1.706369220262521,44.95012834321699,N,O
St-Jodard,SAINT-JODARD,LOIRE,4.125226849910813,45.88584160067725,N,O
Vélines,VELINES,DORDOGNE,0.103698509461612,44.85193455680383,N,O
Anché-Voulon,ANCHE,VIENNE,0.250202849905561,46.34973860615874,N,O
Froncles,FRONCLES,HAUTE-MARNE,5.141558242377115,48.296767634744015,N,O
Fépin,FEPIN,ARDENNES,4.725812200721467,50.02375575619918,N,O
Saillagouse,SAILLAGOUSE,PYRENEES-ORIENTALES,2.032188215121434,42.45673980815688,N,O
Rosporden,ROSPORDEN,FINISTERE,-3.832439579925806,47.96043275687294,O,O
Courcy-Brimont,COURCY,MARNE,4.014231404138552,49.32935496255477,N,O
Ollioules-Sanary-sur-Mer,OLLIOULES,VAR,5.825090288335952,43.12242680804686,N,O
Luant,LUANT,INDRE,1.591407084682672,46.73804442540411,N,O
Olette-Canaveilles-les-Bains,OLETTE,PYRENEES-ORIENTALES,2.272011858927273,42.55466061702315,N,O
Bischoffsheim,BISCHOFFSHEIM,BAS-RHIN,7.497956250479541,48.48701434522969,N,O
Munchhausen,MUNCHHAUSEN,BAS-RHIN,8.141046499310965,48.92393158704121,N,O
St-Gervais-les-Bains-Le Fayet,SAINT-GERVAIS-LES-BAINS,HAUTE-SAVOIE,6.701282988950095,45.90652091637714,N,O
Lavilledieu,LA VILLE-DIEU-DU-TEMPLE,TARN-ET-GARONNE,1.215038302805089,44.03545953997265,N,O
Moulins-sur-Allier,YZEURE,ALLIER,3.33831749651396,46.5587421520745,O,O
Cassel,OXELAERE,NORD,2.461746472715491,50.78700163077851,N,O
Bois-d'Oingt-Légny,LEGNY,RHONE,4.575519138079503,45.90651581214318,N,O
Le Mée,LE MEE-SUR-SEINE,SEINE-ET-MARNE,2.622362332021146,48.54106553995727,N,O
Corbehem,CORBEHEM,PAS-DE-CALAIS,3.040504265536794,50.34299930559739,O,O
Blaisy-Bas,BLAISY-BAS,COTE-D'OR,4.741442157912561,47.373258348235915,N,O
Carnoët-Locarn,LOCARN,COTES-D'ARMOR,-3.490519380665913,48.3403989627636,O,O
Savy-Berlette,SAVY-BERLETTE,PAS-DE-CALAIS,2.558040120070211,50.353883727498975,N,O
Faremoutiers-Pommeuse,POMMEUSE,SEINE-ET-MARNE,2.993256450830373,48.80860544657548,N,O
Montendre,MONTENDRE,CHARENTE-MARITIME,-0.396140374234311,45.28054616702834,N,O
Longueil-Ste-Marie,LONGUEIL-SAINTE-MARIE,OISE,2.717587390886502,49.342567010299035,O,O
Versailles-Rive-Gauche,VERSAILLES,YVELINES,2.129015398019133,48.80026061606698,N,O
Mennessis,MENNESSIS,AISNE,3.270320909384112,49.69194346032663,N,O
Vierzon-Ville,VIERZON,CHER,2.055350617506757,47.22809578240325,O,O
Melun,MELUN,SEINE-ET-MARNE,2.653351571923359,48.527847951884176,O,O
Nantes,NANTES,LOIRE-ATLANTIQUE,-1.544074936864095,47.21656946799687,O,O
Le Mans,LE MANS,SARTHE,0.19373767827699,47.99496278334028,O,O
Paray-le-Monial,PARAY-LE-MONIAL,SAONE-ET-LOIRE,4.115790189568985,46.44617297006666,O,O
Montaudran,TOULOUSE,HAUTE-GARONNE,1.480582915769503,43.57325594002159,N,O
Herny,HERNY,MOSELLE,6.476818963032504,49.00370728140269,N,O
Sallanches-Combloux-Megève,SALLANCHES,HAUTE-SAVOIE,6.63649948695067,45.93577791732538,O,O
Fontaines-d'Ozillac,FONTAINES-D'OZILLAC,CHARENTE-MARITIME,-0.384150518489945,45.388325247539576,N,O
Lyon-St-Paul,LYON,RHONE,4.825581871273259,45.766349841169024,N,O
St-Seurin-sur-l'Isle,SAINT-SEURIN-SUR-L'ISLE,GIRONDE,-0.001940617414119,45.01130602928961,N,O
Houilles-Carrières-sur-Seine,HOUILLES,YVELINES,2.18470061264241,48.92080295541427,N,O
Hirson-Écoles,HIRSON,AISNE,4.086000106405374,49.92932208305819,N,O
Guichen-Bourg-des-Comptes,GUICHEN,ILLE-ET-VILAINE,-1.759963948240837,47.93524867728417,N,O
Santeuil-Le Perchay,SANTEUIL,VAL-D'OISE,1.949101836775275,49.12405278609706,N,O
Raves-Ban-de-Laveline,RAVES,VOSGES,7.03762247712448,48.26569887065687,N,O
Pibrac,PIBRAC,HAUTE-GARONNE,1.289300755311082,43.6215242010746,N,O
Achères-Grand-Cormier,SAINT-GERMAIN-EN-LAYE,YVELINES,2.092094579250713,48.95528483926228,N,O
Collonges,COLLONGES-ET-PREMIERES,COTE-D'OR,5.266038309599982,47.22091902769564,N,O
Limoges-Bénédictins,LIMOGES,HAUTE-VIENNE,1.269103246802025,45.83756066577441,O,O
Melun,MELUN,SEINE-ET-MARNE,2.655756553591216,48.527199552712986,O,O
Porchefontaine,VERSAILLES,YVELINES,2.151756215590128,48.79657256409816,N,O
Igny,IGNY,ESSONNE,2.231029024422673,48.740122666316715,N,O
Bonneville,BONNEVILLE,HAUTE-SAVOIE,6.416534807530288,46.07750965493744,O,O
Chelles-Gournay,CHELLES,SEINE-ET-MARNE,2.582709500637213,48.87414942148909,N,O
Thun-le-Paradis,MEULAN-EN-YVELINES,YVELINES,1.920156337778501,49.00678520012826,N,O
Pont-de-Briques,SAINT-ETIENNE-AU-MONT,PAS-DE-CALAIS,1.626706055217209,50.68286787582379,N,O
Boulazac,BOULAZAC ISLE MANOIRE,DORDOGNE,0.773122390683804,45.17186489281111,N,O
Bruyères,BRUYERES,VOSGES,6.718739829467096,48.20497265363045,N,O
Haybes,HAYBES,ARDENNES,4.705574914362734,50.01196940594156,N,O
Nerpuy,NAINTRE,VIENNE,0.525671146669689,46.78345981424409,N,O
Bouaye,BOUAYE,LOIRE-ATLANTIQUE,-1.681009432067846,47.13797879268768,N,O
Chambéry-Challes-les-Eaux,CHAMBERY,SAVOIE,5.919644744721905,45.57190136351876,O,O
Pas-des-Lanciers,MARIGNANE,BOUCHES-DU-RHONE,5.25404483685121,43.40961464600039,O,O
Luchon,BAGNERES-DE-LUCHON,HAUTE-GARONNE,0.596736402237768,42.79727275671695,N,O
Limay,LIMAY,YVELINES,1.747299431394006,48.984242390536664,N,O
Villetaneuse-Université TT,VILLETANEUSE,SEINE-SAINT-DENIS,2.342504679282486,48.95995301702822,N,O
Charbonnières-les-Bains,CHARBONNIERES-LES-BAINS,RHONE,4.735719610608164,45.782298760340325,N,O
Lamarche,LAMARCHE,VOSGES,5.76038720617832,48.0902790594606,N,O
Montdauphin-Guillestre,EYGLIERS,HAUTES-ALPES,6.615536685768046,44.674572708782506,N,O
Chasse-sur-Rhône,CHASSE-SUR-RHONE,ISERE,4.79521302005551,45.582521505331215,O,O
Villefranche-de-Lauragais,VILLEFRANCHE-DE-LAURAGAIS,HAUTE-GARONNE,1.71514081987692,43.39780360986386,N,O
La Croix-du-Prince,PAU,PYRENEES-ATLANTIQUES,-0.378991277654811,43.28580945036737,N,O
Romorantin (Voie étroite),ROMORANTIN-LANTHENAY,LOIR-ET-CHER,1.739118199598165,47.356248315198506,N,O
Azay-le-Rideau,AZAY-LE-RIDEAU,INDRE-ET-LOIRE,0.446881290568988,47.26528551119567,N,O
St-Égrève-St-Robert,SAINT-EGREVE,ISERE,5.671078139085873,45.23507262058304,O,O
St-Étienne-Le Clapier,SAINT-ETIENNE,LOIRE,4.378403509631388,45.43669852056117,N,O
Fronville,FRONVILLE,HAUTE-MARNE,5.156134031814641,48.40073145861561,N,O
Vichy,VICHY,ALLIER,3.43072483612765,46.12683921223093,O,O
Ivry-sur-Seine,IVRY-SUR-SEINE,VAL-DE-MARNE,2.392955231003297,48.812850332783306,N,O
La Valbonne,BELIGNEUX,AIN,5.124313081373071,45.84898731573564,O,O
Châteauroux,CHATEAUROUX,INDRE,1.703183637265524,46.810961807288315,O,O
St-Cloud,SAINT-CLOUD,HAUTS-DE-SEINE,2.217268558847178,48.84520711744761,N,O
Morlaix,MORLAIX,FINISTERE,-3.832477837161316,48.577981731174525,O,O
Ermont-Eaubonne,ERMONT,VAL-D'OISE,2.270063345810828,48.98087579752103,N,O
Le Theil-de-Bretagne,LE THEIL-DE-BRETAGNE,ILLE-ET-VILAINE,-1.432154987081759,47.91872784258159,N,O
St-Vallier-sur-Rhône,SAINT-VALLIER,DROME,4.814554754094829,45.18564941774933,O,O
Plouaret-Trégor,PLOUARET,COTES-D'ARMOR,-3.470755997826093,48.60650640608806,N,O
Epfig,EPFIG,BAS-RHIN,7.450428471070055,48.36371868266161,N,O
St-Pol-de-Léon,SAINT-POL-DE-LEON,FINISTERE,-3.987357201391775,48.67682336139158,N,O
Vannes,VANNES,MORBIHAN,-2.752403881216251,47.66520979265519,O,O
Bénestroff,BENESTROFF,MOSELLE,6.750621173901005,48.9061919533545,N,O
Château-Arnoux-St-Auban,CHATEAU-ARNOUX-SAINT-AUBAN,ALPES-DE-HAUTE-PROVENCE,5.997672021535323,44.06150235786747,O,O
Chamalières-sur-Loire,CHAMALIERES-SUR-LOIRE,HAUTE-LOIRE,3.992559029978426,45.20599098230012,N,O
Belvezet,MONT LOZERE ET GOULET,LOZERE,3.751807473339702,44.56175524510515,N,O
Tain-l'Hermitage-Tournon,TAIN-L'HERMITAGE,DROME,4.839863623624745,45.07228766988219,N,O
Aurillac,AURILLAC,CANTAL,2.436202111452767,44.92128287269628,O,O
Lavaufranche,LAVAUFRANCHE,CREUSE,2.271196018813131,46.323150373175736,O,O
Meung-sur-Loire,MEUNG-SUR-LOIRE,LOIRET,1.691830031501516,47.82999942870646,N,O
Pignans,PIGNANS,VAR,6.224888239870714,43.298453499674146,N,O
Langeais,LANGEAIS,INDRE-ET-LOIRE,0.410677308449883,47.3240049022944,N,O
Schweighouse-sur-Moder,SCHWEIGHOUSE-SUR-MODER,BAS-RHIN,7.742619127039892,48.82878820093896,O,O
Moustéru,BOURBRIAC,COTES-D'ARMOR,-3.242782593047977,48.50779865852206,N,O
Montmédy,MONTMEDY,MEUSE,5.371700640274836,49.523093923192405,N,O
Wingen-sur-Moder,WINGEN-SUR-MODER,BAS-RHIN,7.381540309334985,48.92008500247013,N,O
Marignac-St-Béat,MARIGNAC,HAUTE-GARONNE,0.651983192271137,42.91546574727395,N,O
Phalempin,PHALEMPIN,NORD,3.019983615088751,50.51468233950347,N,O
Martres-Tolosane,MARTRES-TOLOSANE,HAUTE-GARONNE,1.015612714830371,43.195931482311494,N,O
Moret-Veneux-les-Sablons,MORET-LOING-ET-ORVANNE,SEINE-ET-MARNE,2.797934704242235,48.378969270107795,N,O
La Souterraine,LA SOUTERRAINE,CREUSE,1.490691444529265,46.241740737278604,O,O
Le Buet,VALLORCINE,HAUTE-SAVOIE,6.920548372764412,46.01917242108535,N,O
Fontan-Saorge,FONTAN,ALPES-MARITIMES,7.551578000989646,43.99740866361559,N,O
La Brigue,LA BRIGUE,ALPES-MARITIMES,7.603034286339613,44.06252385171183,N,O
Laroque,LAROQUE-TIMBAUT,LOT-ET-GARONNE,0.749741149561576,44.28750006542904,N,O
Muhlbach-sur-Munster,MUHLBACH-SUR-MUNSTER,HAUT-RHIN,7.087636083352972,48.02448731356157,N,O
Montsoult-Maffliers,MONTSOULT,VAL-D'OISE,2.322488540042579,49.06602499907762,N,O
Fouilloy,FOUILLOY,OISE,1.82549203212016,49.73641873820521,N,O
Le Coteau,LE COTEAU,LOIRE,4.08631855553161,46.023554212978496,N,O
St-Michel-Valloire,SAINT-MICHEL-DE-MAURIENNE,SAVOIE,6.471910120533972,45.21686650849768,O,O
Abancourt,ABANCOURT,OISE,1.774495414204267,49.68552581891906,N,O
Arenc-Euroméditerranée,MARSEILLE,BOUCHES-DU-RHONE,5.367806699275027,43.31288294485868,N,O
Pont-à-Mousson,PONT-A-MOUSSON,MEURTHE-ET-MOSELLE,6.050608194237219,48.90020719080954,O,O
Pont-d'Ain,PONT-D'AIN,AIN,5.334213116969928,46.05385683262983,N,O
Luttenbach-près-Munster,LUTTENBACH-PRES-MUNSTER,HAUT-RHIN,7.118844201837517,48.03530647173009,N,O
Montérolier-Buchy,BUCHY,SEINE-MARITIME,1.336076059966942,49.603288560518415,N,O
Is-sur-Tille,MARCILLY-SUR-TILLE,COTE-D'OR,5.129777870847223,47.52023448752397,O,O
Lunel,LUNEL,HERAULT,4.13115223064578,43.67958578801083,N,O
Champ-de-Mars-Tour-Eiffel,PARIS,PARIS,2.287661980210214,48.85382608574039,N,O
St-Gilles-Croix-de-Vie,SAINT-GILLES-CROIX-DE-VIE,VENDEE,-1.941609608187195,46.696491785801165,N,O
Longueville,LONGUEVILLE,SEINE-ET-MARNE,3.250354020039758,48.513466492488654,O,O
Évry,EVRY-COURCOURONNES,ESSONNE,2.452145652339384,48.634608020746256,N,O
Breuil-Romain,BREUIL-SUR-VESLE,MARNE,3.766878024994296,49.308381394703375,N,O
L'Estaque,MARSEILLE,BOUCHES-DU-RHONE,5.321378031505878,43.363795125943106,N,O
St-Jean-de-Luz-Ciboure,SAINT-JEAN-DE-LUZ,PYRENEES-ATLANTIQUES,-1.661120875576861,43.385630538051984,N,O
Thésée,THESEE,LOIR-ET-CHER,1.312102893838652,47.3221316131585,N,O
Pezou,PEZOU,LOIR-ET-CHER,1.141013622640016,47.86735974833991,O,O
Aubigny-au-Bac,AUBIGNY-AU-BAC,NORD,3.158284448868986,50.268474966278646,N,O
Meuse-TGV,LES TROIS-DOMAINES,MEUSE,5.273714507612137,48.978506341284344,N,O
Pessac,PESSAC,GIRONDE,-0.631981201223286,44.80432882276649,N,O
Étival-Clairefontaine,ETIVAL-CLAIREFONTAINE,VOSGES,6.876938197790184,48.36665344733627,O,O
Herblay,HERBLAY-SUR-SEINE,VAL-D'OISE,2.161872775865862,48.990322193724175,N,O
Strasbourg-Ville,STRASBOURG,BAS-RHIN,7.731594953278417,48.58287025491014,O,O
Cessieu,CESSIEU,ISERE,5.376503013725852,45.560946177685025,N,O
Bazoches,BAZOCHES-ET-SAINT-THIBAUT,AISNE,3.616467770361404,49.305274498556166,N,O
Gemeaux,GEMEAUX,COTE-D'OR,5.129734642399783,47.47814146694035,N,O
Rosny-sous-Bois,ROSNY-SOUS-BOIS,SEINE-SAINT-DENIS,2.486053771443001,48.87051086552947,N,O
Troyes,SAINT-JULIEN-LES-VILLAS,AUBE,4.093255492388044,48.267956881185235,O,O
Ailly-sur-Noye,AILLY-SUR-NOYE,SOMME,2.364295000500494,49.75486539962855,O,O
Éloyes,ELOYES,VOSGES,6.59997034529485,48.087125849744865,N,O
Lezennes,LILLE,NORD,3.099675595055702,50.62054878580979,N,O
La Garde,LA GARDE,VAR,6.010088274585391,43.11864738966461,N,O
Grandvilliers,GRANDVILLIERS,OISE,1.938728682479368,49.659261837964,O,O
Serdinya,SERDINYA,PYRENEES-ORIENTALES,2.323221995415574,42.56698185636394,N,O
Abancourt,ABANCOURT,OISE,1.774718285053579,49.68553371297622,N,O
Valence-TGV,ALIXAN,DROME,4.978549257404847,44.99274215354382,N,O
Saillat-Chassenon,SAILLAT-SUR-VIENNE,HAUTE-VIENNE,0.811741675479887,45.86954035138914,O,O
St-Armel,SAINT-ARMEL,ILLE-ET-VILAINE,-1.594854775231689,48.01416047020141,N,O
Bollène-la-Croisière,BOLLENE,VAUCLUSE,4.708148184793457,44.27154233164936,O,O
Nesle,NESLE,SOMME,2.909003683132353,49.7640751454266,O,O
Golfech,GOLFECH,TARN-ET-GARONNE,0.853637697839654,44.116212667357935,N,O
Étang,ETANG-SUR-ARROUX,SAONE-ET-LOIRE,4.183713530019221,46.868012419549025,N,O
Louverné,LOUVERNE,MAYENNE,-0.714321788569237,48.10888106533703,N,O
Tessonnières,GAILLAC,TARN,1.937882599131063,43.92872774567249,O,O
Goncelin,GONCELIN,ISERE,5.973982765486262,45.34197077504866,N,O
La Villette-St-Prest,SAINT-PREST,EURE-ET-LOIR,1.523025386051404,48.48261879661532,N,O
Lozanne,LOZANNE,RHONE,4.682629820999579,45.85405491937336,O,O
Gironde,GIRONDE-SUR-DROPT,GIRONDE,-0.091953787971817,44.58299090218213,N,O
Vorey,VOREY,HAUTE-LOIRE,3.910845069786845,45.183917174735306,N,O
Coursan,COURSAN,AUDE,3.051416551996191,43.23418716654783,N,O
Boucoiran,BOUCOIRAN-ET-NOZIERES,GARD,4.18754351808406,43.99273014025837,N,O
Jacques-Monod-La Demi-Lieue,MONTIVILLIERS,SEINE-MARITIME,0.185965204616912,49.52699924587134,N,O
Anse,ANSE,RHONE,4.719886003240322,45.939355674976504,N,O
Gièvres,GIEVRES,LOIR-ET-CHER,1.668036905347221,47.27903366095384,O,O
Cannes-la-Bocca,CANNES,ALPES-MARITIMES,6.986338060282122,43.54903243108161,N,O
Mouroux,MOUROUX,SEINE-ET-MARNE,3.044047451591068,48.81347015023518,N,O
Paris-St-Lazare,PARIS,PARIS,2.324000851373341,48.876449960632634,N,O
Heilly,HEILLY,SOMME,2.540395372875266,49.94382816531326,N,O
Toury,TOURY,EURE-ET-LOIR,1.939384579321158,48.19237858487703,O,O
Muret,MURET,HAUTE-GARONNE,1.323643762604224,43.46395527124194,O,O
Abbaretz,ABBARETZ,LOIRE-ATLANTIQUE,-1.524313466657773,47.55546171193697,N,O
Beaurainville,BEAURAINVILLE,PAS-DE-CALAIS,1.895345549815496,50.42276362998072,N,O
Saales,SAALES,BAS-RHIN,7.110880725329616,48.347294703282934,N,O
Teillé,TEILLE,SARTHE,0.191517320153433,48.1813892187838,N,O
La Seyne-Six-Fours,LA SEYNE-SUR-MER,VAR,5.876768162862302,43.11695584401205,O,O
Maizières-lès-Metz,MAIZIERES-LES-METZ,MOSELLE,6.158221809436721,49.21554938935268,N,O
Étréchy,ETRECHY,ESSONNE,2.19360515789254,48.492275105306405,N,O
Jatxou,USTARITZ,PYRENEES-ATLANTIQUES,-1.444737218362545,43.39103536760935,N,O
Bouray,LARDY,ESSONNE,2.289125822214123,48.53193456586715,N,O
Conflans-Jarny,JARNY,MEURTHE-ET-MOSELLE,5.87842254738281,49.16607952738909,O,O
Coarraze-Nay,COARRAZE,PYRENEES-ATLANTIQUES,-0.241804210231492,43.18171577861642,N,O
Louvres,LOUVRES,VAL-D'OISE,2.502681038602271,49.04998445076471,N,O
Penne,PENNE-D'AGENAIS,LOT-ET-GARONNE,0.79911677740077,44.37674412103538,O,O
Houlgate,HOULGATE,CALVADOS,-0.077176226521169,49.30002272376924,N,O
Maillé,MAILLE,INDRE-ET-LOIRE,0.583165439178813,47.05316642302488,N,O
Chasseradès,MONT LOZERE ET GOULET,LOZERE,3.839817631340908,44.553902953903226,N,O
Coudekerque-Branche,COUDEKERQUE-BRANCHE,NORD,2.375589735739861,51.01696058094301,O,O
Compiègne,MARGNY-LES-COMPIEGNE,OISE,2.823822782539432,49.422366072064975,O,O
St-Jean-de-Verges,CRAMPAGNA,ARIEGE,1.608078902407974,43.01220711368319,N,O
Brion-Montréal-la-Cluse,BRION,AIN,5.558441193876042,46.17569128346321,N,O
La Teste,LA TESTE-DE-BUCH,GIRONDE,-1.142811777104821,44.63711174416608,O,O
Les Grésillons,GENNEVILLIERS,HAUTS-DE-SEINE,2.314073814725131,48.92011985084626,N,O
Belfort-Montbéliard-TGV,MEROUX-MOVAL,TERRITOIRE-DE-BELFORT,6.898445295065638,47.58602332147397,N,O
Rosult,ROSULT,NORD,3.348301824455115,50.456479064497294,N,O
St-Saviol,SAINT-SAVIOL,VIENNE,0.217824635463402,46.14701859092328,O,O
Calais-Fréthun,FRETHUN,PAS-DE-CALAIS,1.811555402785079,50.9015707880651,N,O
Joncet,SERDINYA,PYRENEES-ORIENTALES,2.311245947030554,42.561539114650905,N,O
Labarthe-Inard,LABARTHE-INARD,HAUTE-GARONNE,0.851961795025665,43.10494554640785,N,O
Cinq-Mars-la-Pile,CINQ-MARS-LA-PILE,INDRE-ET-LOIRE,0.460452261139511,47.345053921069486,N,O
St-André-le-Gaz,SAINT-ANDRE-LE-GAZ,ISERE,5.52473658763692,45.54393704222099,O,O
Rocamadour-Padirac,ROCAMADOUR,LOT,1.657471417467261,44.81819048951347,N,O
La Possonnière,LA POSSONNIERE,MAINE-ET-LOIRE,-0.694419784842231,47.371091352025,N,O
L'Hospitalet-près-l'Andorre,L'HOSPITALET-PRES-L'ANDORRE,ARIEGE,1.800026840097774,42.5895023978247,N,O
Labenne,LABENNE,LANDES,-1.428786764562733,43.58707120044295,N,O
Sarrebourg,SARREBOURG,MOSELLE,7.051727539632061,48.73862149825253,O,O
Wattignies-Templemars,TEMPLEMARS,NORD,3.051235483877137,50.57837888518604,N,O
Dieulouard,DIEULOUARD,MEURTHE-ET-MOSELLE,6.071541266219483,48.84382867601292,O,O
Villabé,VILLABE,ESSONNE,2.461828319020637,48.59264620198872,N,O
Livron,LIVRON-SUR-DROME,DROME,4.830132288298437,44.779689433736834,N,O
Chaponval,AUVERS-SUR-OISE,VAL-D'OISE,2.14174884933166,49.069128055447806,N,O
Golfe-Juan-Vallauris,VALLAURIS,ALPES-MARITIMES,7.072898593539637,43.565966860204,N,O
Tronsanges,TRONSANGES,NIEVRE,3.053982608953191,47.11312698272247,N,O
St-Paul-de-Varax,SAINT-PAUL-DE-VARAX,AIN,5.128115701915889,46.1001189819199,N,O
St-Amand-les-Eaux,SAINT-AMAND-LES-EAUX,NORD,3.412495431096073,50.44598752949574,O,O
Escaudoeuvres,ESCAUDUVRES,NORD,3.276361665143941,50.19234895374144,N,O
Précy-sur-Oise,PRECY-SUR-OISE,OISE,2.376953455328803,49.203501298737045,N,O
Lens,LENS,PAS-DE-CALAIS,2.827218591200356,50.42697806792896,O,O
Blanzy,BLANZY,SAONE-ET-LOIRE,4.391261601142118,46.69399291424549,N,O
Pont-de-la-Deûle,FLERS-EN-ESCREBIEUX,NORD,3.084946919323701,50.39768903291043,O,O
Angoulins-sur-Mer,ANGOULINS,CHARENTE-MARITIME,-1.115623560111951,46.10794733842751,N,O
St-Dié-des-Vosges,SAINT-DIE-DES-VOSGES,VOSGES,6.94717370791528,48.282120288797906,O,O
Illfurth,ILLFURTH,HAUT-RHIN,7.268794462672753,47.676683871162425,N,O
Ste-Léocadie,SAINTE-LEOCADIE,PYRENEES-ORIENTALES,2.010769165615426,42.441308040980225,N,O
La Penne-sur-Huveaune,LA PENNE-SUR-HUVEAUNE,BOUCHES-DU-RHONE,5.515553840898035,43.284789141416624,N,O
Troyes,SAINT-JULIEN-LES-VILLAS,AUBE,4.091767915224051,48.26960987416348,O,O
La Chapelle-sur-Loire,LA CHAPELLE-SUR-LOIRE,INDRE-ET-LOIRE,0.21864433916433,47.25125666828695,N,O
St-Jean-de-Losne,SAINT-USAGE,COTE-D'OR,5.240605340813892,47.10318863854627,O,O
Pont-d'Ardres,ARDRES,PAS-DE-CALAIS,1.971319781238637,50.89209252681081,O,O
Lisle-sur-Tarn,LISLE-SUR-TARN,TARN,1.808445804445401,43.85699726914997,N,O
Achères-Ville,ACHERES,YVELINES,2.077781536261871,48.970114458751645,N,O
St-Agnan,SAINT-AGNAN,SAONE-ET-LOIRE,3.879207864973599,46.50146020099201,N,O
Vieilleville,MOURIOUX-VIEILLEVILLE,CREUSE,1.671710881358411,46.08892502640087,N,O
Auxerre-St-Gervais,AUXERRE,YONNE,3.585464507772017,47.79761112367383,O,O
Mazamet,MAZAMET,TARN,2.374807435653445,43.497891075793675,O,O
Vallorcine,VALLORCINE,HAUTE-SAVOIE,6.932883996112776,46.03240057345807,N,O
Dunkerque,DUNKERQUE,NORD,2.364678910284624,51.034645417513985,O,O
Dannemarie,DANNEMARIE,HAUT-RHIN,7.125321504403092,47.62764248459723,N,O
Belfort,BELFORT,TERRITOIRE-DE-BELFORT,6.855518836923356,47.62962842293642,O,O
Aixe-sur-Vienne,AIXE-SUR-VIENNE,HAUTE-VIENNE,1.145647625204983,45.79649852975975,N,O
Dompierre-Sept-Fons,DOMPIERRE-SUR-BESBRE,ALLIER,3.675343009355433,46.52641660175006,O,O
Rémilly,REMILLY,MOSELLE,6.394501274463497,49.01480004894034,O,O
Tours,TOURS,INDRE-ET-LOIRE,0.69555679219247,47.38792066135387,O,O
Pléchâtel,PLECHATEL,ILLE-ET-VILAINE,-1.776537138243784,47.87205414636025,N,O
Chaulnes,CHAULNES,SOMME,2.802085456528031,49.80704259461086,O,O
Voujeaucourt,VOUJEAUCOURT,DOUBS,6.770008290026753,47.47894451459476,N,O
Trémentines,TREMENTINES,MAINE-ET-LOIRE,-0.808657189284724,47.1350379427619,N,O
La Crèche,LA CRECHE,DEUX-SEVRES,-0.296227383315685,46.3605230135639,N,O
Montville,ESLETTES,SEINE-MARITIME,1.069874551174672,49.5512072804505,N,O
Lorraine-TGV,LOUVIGNY,MOSELLE,6.173286307716069,48.94799570019468,N,O
Lizy-sur-Ourcq,LIZY-SUR-OURCQ,SEINE-ET-MARNE,3.031864920341824,49.02179218810581,O,O
Mantes-la-Jolie,MANTES-LA-VILLE,YVELINES,1.70309309052191,48.989085133393594,O,O
St-Nazaire,SAINT-NAZAIRE,LOIRE-ATLANTIQUE,-2.211324800004774,47.28676363953024,O,O
Triel-sur-Seine,TRIEL-SUR-SEINE,YVELINES,2.006151763273637,48.98092617764641,N,O
Rosières-aux-Salines,DOMBASLE-SUR-MEURTHE,MEURTHE-ET-MOSELLE,6.350779481206112,48.60510614106857,N,O
Château-du-Loir,MONTVAL-SUR-LOIR,SARTHE,0.415045923178714,47.68295549546014,O,O
Pont-du-Garigliano-Hôpital-Georges-Pompidou,PARIS,PARIS,2.270480189164176,48.83915148467825,N,O
Hellemmes,LILLE,NORD,3.116260107935155,50.62287383634239,O,O
Beau-Marais,CALAIS,PAS-DE-CALAIS,1.899167319606589,50.945374237372256,N,O
Flers,FLERS,ORNE,-0.573534215608868,48.7443263394735,N,O
Balagny-St-Épin,BALAGNY-SUR-THERAIN,OISE,2.344246592501725,49.294257290116214,N,O
St-Étienne-Carnot,SAINT-ETIENNE,LOIRE,4.384775397927474,45.446730990708296,N,O
La Rochefoucauld,LA ROCHEFOUCAULD-EN-ANGOUMOIS,CHARENTE,0.38984481512601,45.74024192809467,N,O
La Chapelle-Centre,LA CHAPELLE-SUR-ERDRE,LOIRE-ATLANTIQUE,-1.548427564192517,47.295746262153045,O,O
Itxassou,ITXASSOU,PYRENEES-ATLANTIQUES,-1.395309489751563,43.32408263835211,N,O
Massy-Verrières,MASSY,ESSONNE,2.273583714478755,48.73485491346597,N,O
Drap-Cantaron,CANTARON,ALPES-MARITIMES,7.316939479711958,43.75988022243699,N,O
Moreuil,MOREUIL,SOMME,2.475453542153178,49.77709227697043,N,O
Plerguer,PLERGUER,ILLE-ET-VILAINE,-1.850553974849737,48.53148389771887,N,O
Lentilly-Charpenay,LENTILLY,RHONE,4.682268018683733,45.8165281223888,N,O
Trélazé,TRELAZE,MAINE-ET-LOIRE,-0.469567830097351,47.45284945442928,N,O
La Ricamarie,LA RICAMARIE,LOIRE,4.357680089145885,45.403197752600775,N,O
Péreire-Levallois,PARIS,PARIS,2.297972634967636,48.88527189234944,N,O
Gien,GIEN,LOIRET,2.636757350624025,47.698878641555325,O,O
St-Germain-des-Fossés,SAINT-GERMAIN-DES-FOSSES,ALLIER,3.430507768733191,46.20901169096101,O,O
Cavignac,CAVIGNAC,GIRONDE,-0.382083372825998,45.10528555773667,N,O
Bressuire,BRESSUIRE,DEUX-SEVRES,-0.496368796646087,46.8381717510726,N,O
Pont-Remy,PONT-REMY,SOMME,1.898939345567899,50.04724458212341,N,O
St-Gaudens,SAINT-GAUDENS,HAUTE-GARONNE,0.728631549972755,43.1047116609694,O,O
Mouchard,MOUCHARD,JURA,5.800378285208584,46.975770112057795,N,O
Miribel,MIRIBEL,AIN,4.953756089762523,45.82181668995889,O,O
Ors,ORS,NORD,3.626654190031645,50.10307653946187,N,O
Selles-sur-Cher,SELLES-SUR-CHER,LOIR-ET-CHER,1.546144164943466,47.28188791364479,N,O
Monnerville,MONNERVILLE,ESSONNE,2.031020422674964,48.347252262438936,N,O
Annecy,ANNECY,HAUTE-SAVOIE,6.121832970715078,45.90221094284461,O,O
Lamanon,LAMANON,BOUCHES-DU-RHONE,5.091458171829456,43.6999727965264,N,O
Duppigheim,DUPPIGHEIM,BAS-RHIN,7.587072359646609,48.54404266185156,N,O
Base Aérienne,GIEVRES,LOIR-ET-CHER,1.681942131120967,47.32008704189344,N,O
Corrèze,SAINT-PRIEST-DE-GIMEL,CORREZE,1.879639494361449,45.32876581451238,N,O
Tourville,TOURVILLE-LA-RIVIERE,SEINE-MARITIME,1.098509869879438,49.32455521261547,N,O
Cambrai,CAMBRAI,NORD,3.243769164260604,50.17574195514733,N,O
Paris-Gare-de-Lyon-Souterrain,PARIS,PARIS,2.375645285904874,48.84431152436104,N,O
Carantilly-Marigny,CARANTILLY,MANCHE,-1.244517323198757,49.06787505568984,N,O
Montauban-de-Bretagne,MONTAUBAN-DE-BRETAGNE,ILLE-ET-VILAINE,-2.052807491308817,48.19003805004627,O,O
Allassac,ALLASSAC,CORREZE,1.472903260926275,45.25916237718533,N,O
Tullins-Fures,TULLINS,ISERE,5.492335867260874,45.30087741538891,N,O
Givors-Canal,GIVORS,RHONE,4.7717712481504,45.59602665061307,N,O
Montereau,VARENNES-SUR-SEINE,SEINE-ET-MARNE,2.936172695473762,48.380062575084864,O,O
St-Antoine-de-Breuilh,SAINT-ANTOINE-DE-BREUILH,DORDOGNE,0.151863918405835,44.84669421977345,N,O
Avignon-TGV,AVIGNON,VAUCLUSE,4.785988680479314,43.92185220386844,N,O
Boisseaux,BOISSEAUX,LOIRET,1.972591773181168,48.25530706942869,N,O
Meyrargues,MEYRARGUES,BOUCHES-DU-RHONE,5.539284286572694,43.644079505354135,N,O
St-Michel-Notre-Dame,PARIS,PARIS,2.346962754944606,48.853002250369464,N,O
Ludon,LUDON-MEDOC,GIRONDE,-0.611768523207315,44.97432408179623,N,O
Colmar,COLMAR,HAUT-RHIN,7.349087420944785,48.075310117840175,O,O
Liart,LIART,ARDENNES,4.335391598446347,49.77036003975778,N,O
Herrlisheim-près-Colmar,HERRLISHEIM-PRES-COLMAR,HAUT-RHIN,7.320825947422454,48.01758069499349,N,O
Montpon-Ménestérol,MONTPON-MENESTEROL,DORDOGNE,0.15939471755587,45.0062166181403,N,O
Montbard,MONTBARD,COTE-D'OR,4.335234843608656,47.61865027866219,O,O
St-Étienne-La Terrasse,SAINT-ETIENNE,LOIRE,4.379503128451234,45.46473450079108,N,O
Moûtiers-Salins-Brides-les-Bains,MOUTIERS,SAVOIE,6.531548657040216,45.48649045265134,N,O
Avesnes,AVESNES-SUR-HELPE,NORD,3.933691932159471,50.126510256624066,O,O
Novillars,NOVILLARS,DOUBS,6.132814644078752,47.28396223971061,N,O
Méru,MERU,OISE,2.1323187163077,49.23247991646353,N,O
Guéthary,GUETHARY,PYRENEES-ATLANTIQUES,-1.609869139610882,43.42532742825411,N,O
Hundling,HUNDLING,MOSELLE,6.977467233796318,49.1065704173177,N,O
Sarrebourg,SARREBOURG,MOSELLE,7.051941434650432,48.73844492124301,O,O
Gonfaron,GONFARON,VAR,6.281840550501697,43.31712508692793,N,O
Gertwiller,GERTWILLER,BAS-RHIN,7.466354571437926,48.413335554660975,N,O
Cap-Martin-Roquebrune,ROQUEBRUNE-CAP-MARTIN,ALPES-MARITIMES,7.456405684962863,43.76034857039875,N,O
Rozières-sur-Mouzon,ROZIERES-SUR-MOUZON,VOSGES,5.705525159209666,48.120907804657705,N,O
Roeux,RUX,PAS-DE-CALAIS,2.894663063869079,50.30353095017339,N,O
Aimargues,AIMARGUES,GARD,4.208741750869569,43.67865141363299,N,O
Parc-des-Expositions,VILLEPINTE,SEINE-SAINT-DENIS,2.514359685972242,48.9733203563074,N,O
Wissembourg,WISSEMBOURG,BAS-RHIN,7.95053463848673,49.03147863013146,O,O
Thiviers,THIVIERS,DORDOGNE,0.916121738812947,45.408720143186905,O,O
Kédange,KEDANGE-SUR-CANNER,MOSELLE,6.332346091249345,49.3057057545391,N,O
Dordives,DORDIVES,LOIRET,2.762535922688357,48.1473164313826,N,O
Dijon-Ville,DIJON,COTE-D'OR,5.027142558968659,47.32301605786211,O,O
Hangest,HANGEST-SUR-SOMME,SOMME,2.066573743880107,49.98213491009387,N,O
Carnolès,ROQUEBRUNE-CAP-MARTIN,ALPES-MARITIMES,7.480839159210381,43.761197114922226,N,O
St-Vincent-de-Tyrosse,SAINT-VINCENT-DE-TYROSSE,LANDES,-1.306419925731927,43.65764559327288,N,O
Suresnes-Mont-Valérien,SURESNES,HAUTS-DE-SEINE,2.221062051357459,48.87168355309941,N,O
Allenc,ALLENC,LOZERE,3.664130358302335,44.54152103116181,N,O
Vertaizon,VERTAIZON,PUY-DE-DOME,3.288416384375966,45.784639879943335,N,O
Libercourt,LIBERCOURT,PAS-DE-CALAIS,3.008776421585093,50.47955213929722,O,O
Montaigut,MONTAIGUT-LE-BLANC,CREUSE,1.733969543853879,46.136892801435906,N,O
St-Pierre-en-Faucigny,SAINT-PIERRE-EN-FAUCIGNY,HAUTE-SAVOIE,6.375818121381265,46.059221444252294,N,O
Arles,ARLES,BOUCHES-DU-RHONE,4.632541582258205,43.68370505409543,O,O
Chamonix-Aiguille du Midi,CHAMONIX-MONT-BLANC,HAUTE-SAVOIE,6.866775130613225,45.91983056067075,N,O
Bouffémont-Moisselles,BOUFFEMONT,VAL-D'OISE,2.322968171577075,49.04519005770302,N,O
Albigny-Neuville,ALBIGNY-SUR-SAONE,RHONE,4.832699143944655,45.87476917807617,N,O
Schwindratzheim,SCHWINDRATZHEIM,BAS-RHIN,7.60067795014709,48.75358419451172,N,O
Docelles-Cheniménil,CHENIMENIL,VOSGES,6.610526430412812,48.14354395703814,O,O
Longuerue-Vieux-Manoir,VIEUX-MANOIR,SEINE-MARITIME,1.276733910125994,49.556788208426134,N,O
Hagondange,HAGONDANGE,MOSELLE,6.163956790210976,49.253527340214866,O,O
Somain,SOMAIN,NORD,3.279705326446376,50.35539709287167,O,O
Messein,MESSEIN,MEURTHE-ET-MOSELLE,6.137640767250031,48.61299997287908,N,O
St-Cyr-les-Lècques-La Cadière,SAINT-CYR-SUR-MER,VAR,5.703752554715746,43.18536670423366,N,O
Chauffailles,CHAUFFAILLES,SAONE-ET-LOIRE,4.345646677563432,46.20742149477374,N,O
Latour-de-Carol-Enveitg,ENVEITG,PYRENEES-ORIENTALES,1.905858604509927,42.45814353883745,N,O
Le Cateau,LE CATEAU-CAMBRESIS,NORD,3.540412090656099,50.09126147749306,O,O
Bassens,BASSENS,GIRONDE,-0.522440511179966,44.901397388496285,N,O
Orléans,ORLEANS,LOIRET,1.90475970109187,47.90815419279802,O,O
Villefranche-sur-Mer,VILLEFRANCHE-SUR-MER,ALPES-MARITIMES,7.31422546559436,43.70695905884717,N,O
Solliès-Pont,SOLLIES-PONT,VAR,6.046659633633765,43.19218999615403,N,O
Sèvres-Ville-d'Avray,SEVRES,HAUTS-DE-SEINE,2.200787293018457,48.82741176034041,N,O
Coulanges-sur-Yonne,CRAIN,YONNE,3.54728616178212,47.52701781556112,O,O
Corcy,CORCY,AISNE,3.216285373262403,49.25539267141989,N,O
Gramat,GRAMAT,LOT,1.722316178276392,44.77346913309101,N,O
Reuilly,REUILLY,INDRE,2.046970081249991,47.08961194495499,N,O
La Jonchère,LA JONCHERE-SAINT-MAURICE,HAUTE-VIENNE,1.482236597315255,45.99547345430206,N,O
Montpellier-St-Roch,MONTPELLIER,HERAULT,3.882757509959065,43.606091075648855,N,O
Chaugey,LOSNE,COTE-D'OR,5.255037292221724,47.08764413683483,N,O
St-Florentin-Vergigny,VERGIGNY,YONNE,3.730868832249274,47.98089785203937,O,O
Ria,RIA-SIRACH,PYRENEES-ORIENTALES,2.390483764544026,42.60323405259894,N,O
St-Dié-des-Vosges,SAINT-DIE-DES-VOSGES,VOSGES,6.950498210083727,48.28142701610043,O,O
Mauzac,MAUZAC-ET-GRAND-CASTANG,DORDOGNE,0.789985150689261,44.855764301617775,N,O
Ermont-Eaubonne,EAUBONNE,VAL-D'OISE,2.275196923032513,48.9805610579189,N,O
Corbigny,CORBIGNY,NIEVRE,3.677184737926491,47.25489222994257,O,O
Dives-Cabourg,DIVES-SUR-MER,CALVADOS,-0.10768360318535,49.28657302870108,N,O
Chèvremont,CHEVREMONT,TERRITOIRE-DE-BELFORT,6.921711486962711,47.621693216603305,N,O
St-Jean-d'Angély,SAINT-JEAN-D'ANGELY,CHARENTE-MARITIME,-0.509742382856997,45.940790618919515,O,O
Brignoud,VILLARD-BONNOT,ISERE,5.901324741120957,45.262498924839655,O,O
Breil-sur-Roya,BREIL-SUR-ROYA,ALPES-MARITIMES,7.514373727256736,43.94194602172789,N,O
Mont-de-Marsan,MONT-DE-MARSAN,LANDES,-0.504121585986459,43.884703925347225,O,O
Ille-sur-Têt,ILLE-SUR-TET,PYRENEES-ORIENTALES,2.62421294273941,42.668211445185555,N,O
Bas-Évette,EVETTE-SALBERT,TERRITOIRE-DE-BELFORT,6.80568022936376,47.681396111860366,O,O
Étainhus-St-Romain,ETAINHUS,SEINE-MARITIME,0.33042269040196,49.56059940093719,N,O
Obermodern,OBERMODERN-ZUTZENDORF,BAS-RHIN,7.547027621205904,48.84250786767418,N,O
Fontainebleau-Avon,AVON,SEINE-ET-MARNE,2.727200067146435,48.41746394574521,O,O
Port-de-Piles,LA CELLE-SAINT-AVANT,INDRE-ET-LOIRE,0.5986678528766,47.01026205394025,O,O
Vif,VIF,ISERE,5.684607331796149,45.047842612022485,O,O
Villeneuve-Triage,VILLENEUVE-SAINT-GEORGES,VAL-DE-MARNE,2.438468473703435,48.745460746350595,O,O
Vigneux-sur-Seine,VIGNEUX-SUR-SEINE,ESSONNE,2.414485371610876,48.7084287511915,N,O
Paul-Émile-Victor,CHAMPAGNOLE,JURA,5.919809604655679,46.74261626614565,N,O
Mitry-Claye,MITRY-MORY,SEINE-ET-MARNE,2.642349425917973,48.97575440310002,O,O
Évry-Courcouronnes,EVRY-COURCOURONNES,ESSONNE,2.429374227134183,48.62597794398785,N,O
Boissy-l'Aillerie,BOISSY-L'AILLERIE,VAL-D'OISE,2.024992371835797,49.07580982720981,N,O
Joigny-sur-Meuse,JOIGNY-SUR-MEUSE,ARDENNES,4.767798406916734,49.83304792527545,N,O
Châtel-Nomexy,NOMEXY,VOSGES,6.387540083828062,48.30712626879246,O,O
Diemeringen,DIEMERINGEN,BAS-RHIN,7.184733758034072,48.94083173304142,O,O
Grigny-Centre,GRIGNY,ESSONNE,2.394129417096676,48.65119762829812,N,O
Oderen,ODEREN,HAUT-RHIN,6.973583940197528,47.91183401357484,N,O
Montescourt,MONTESCOURT-LIZEROLLES,AISNE,3.251936978207889,49.738090356394565,O,O
Noisy-le-Sec,NOISY-LE-SEC,SEINE-SAINT-DENIS,2.46053811074278,48.89662942959558,O,O
Loos-lez-Lille,LOOS,NORD,3.016580779523829,50.6127400445533,N,O
Chantonnay,CHANTONNAY,VENDEE,-1.054574069558356,46.68978994134723,N,O
St-Pierre-de-Chignac,SAINT-PIERRE-DE-CHIGNAC,DORDOGNE,0.85708060093846,45.12347104277347,N,O
Cernay,ERMONT,VAL-D'OISE,2.256114102392353,48.98551638656152,N,O
Le Teich,LE TEICH,GIRONDE,-1.02560772982549,44.63235011251188,N,O
Les Lacs,SAINT-AUBIN-DES-LANDES,ILLE-ET-VILAINE,-1.322347292655554,48.109081657042296,O,O
Viroflay-Rive-Gauche,VIROFLAY,YVELINES,2.171520002305991,48.8005737573124,N,O
Aigueperse,AIGUEPERSE,PUY-DE-DOME,3.198197540630287,46.01474354858696,N,O
Le Monastier,BOURGS SUR COLAGNE,LOZERE,3.25131729499557,44.50637197519356,N,O
Colmar-St-Joseph,COLMAR,HAUT-RHIN,7.344998805877574,48.081830719450615,N,O
Vitry-sur-Seine,VITRY-SUR-SEINE,VAL-DE-MARNE,2.403548612394372,48.798813904369624,O,O
Banassac-La Canourgue,BANASSAC-CANILHAC,LOZERE,3.196254083905296,44.44756428729797,N,O
Lisieux,LISIEUX,CALVADOS,0.230480535139116,49.13833836091847,N,O
Paris-St-Lazare,PARIS,PARIS,2.326303315694158,48.87693884103283,N,O
Pierrefite-Stains TT,PIERREFITTE-SUR-SEINE,SEINE-SAINT-DENIS,2.367366380253276,48.96007131342436,N,O
Buire-sur-l'Ancre,BUIRE-SUR-L'ANCRE,SOMME,2.599456443937742,49.96514173113135,N,O
Volvic,VOLVIC,PUY-DE-DOME,3.003424660759702,45.86473005056438,O,O
Hombourg-Haut,HOMBOURG-HAUT,MOSELLE,6.77429829221759,49.12615707140362,N,O
Chepy-Valines,CHEPY,SOMME,1.635877525001808,50.068273334840214,N,O
Saverdun,SAVERDUN,ARIEGE,1.570693505005694,43.2393788222438,N,O
Auboué,AUBOUE,MEURTHE-ET-MOSELLE,5.970192427814392,49.21595030308611,O,O
Luxeuil-les-Bains,LUXEUIL-LES-BAINS,HAUTE-SAONE,6.372354125269903,47.81505567955934,N,O
Monsempron-Libos,MONSEMPRON-LIBOS,LOT-ET-GARONNE,0.941246069893637,44.48651614118785,N,O
Chasseneuil (Vienne),CHASSENEUIL-DU-POITOU,VIENNE,0.37290077344052,46.65191701703638,O,O
Nice-Ville,NICE,ALPES-MARITIMES,7.261742357128731,43.70479288120297,N,O
Beuvrages,BEUVRAGES,NORD,3.505854793654777,50.389514020355094,N,O
Château-Renault,CHATEAU-RENAULT,INDRE-ET-LOIRE,0.901441463891866,47.58783274114799,O,O
Maisons-Laffitte,MAISONS-LAFFITTE,YVELINES,2.14473523437646,48.94558447506499,N,O
St-Loubès,SAINT-LOUBES,GIRONDE,-0.432914030052802,44.92235430221012,N,O
Anchamps,ANCHAMPS,ARDENNES,4.66991430394058,49.93076514927236,N,O
Iwuy,IWUY,NORD,3.330420094018675,50.226267859212776,N,O
Perpignan,PERPIGNAN,PYRENEES-ORIENTALES,2.879350450581682,42.69621526112407,O,O
Saujon,SAUJON,CHARENTE-MARITIME,-0.930419852300245,45.66696039861186,O,O
Thiaville,THIAVILLE-SUR-MEURTHE,MEURTHE-ET-MOSELLE,6.810414357035961,48.413727359479,N,O
Roppenheim,ROPPENHEIM,BAS-RHIN,8.05980690889564,48.849608768501895,N,O
La Grave-d'Ambarès-Gare-Inférieure,AMBARES-ET-LAGRAVE,GIRONDE,-0.477055556017021,44.93585506650114,N,O
Bayeux,BAYEUX,CALVADOS,-0.698300893971391,49.26958107576529,O,O
Thomery,FONTAINEBLEAU,SEINE-ET-MARNE,2.762318803658344,48.394401706465494,N,O
Grasse,GRASSE,ALPES-MARITIMES,6.927538788698524,43.65432174693225,N,O
Savenay,SAVENAY,LOIRE-ATLANTIQUE,-1.951077475534361,47.358398241426976,N,O
Provins,PROVINS,SEINE-ET-MARNE,3.30307374775591,48.55561676128615,O,O
Francheville,FRANCHEVILLE,RHONE,4.770411272700129,45.73170828178038,N,O
Marly-le-Roi,MARLY-LE-ROI,YVELINES,2.096708277199224,48.87145415279499,N,O
La Bassée,LA BASSEE,NORD,2.804054051519795,50.52746595501221,O,O
Miramas,MIRAMAS,BOUCHES-DU-RHONE,4.999641779220911,43.58092152299963,O,O
Mantes-Station,MANTES-LA-JOLIE,YVELINES,1.715737202768139,48.983359638519275,N,O
Nantes,NANTES,LOIRE-ATLANTIQUE,-1.544230274778459,47.216453501485695,O,O
Garchizy,GARCHIZY,NIEVRE,3.086003179809804,47.04298176279929,N,O
St-Germain-au-Mont-d'Or,SAINT-GERMAIN-AU-MONT-D'OR,RHONE,4.804518977167889,45.888540119601046,O,O
Thouaré,THOUARE-SUR-LOIRE,LOIRE-ATLANTIQUE,-1.441041066885646,47.26508698273898,N,O
Montdidier,MONTDIDIER,SOMME,2.563894631563374,49.64178204710456,O,O
Virieu-sur-Bourbre,VAL-DE-VIRIEU,ISERE,5.471451660227618,45.491251882818005,N,O
Béning,BENING-LES-SAINT-AVOLD,MOSELLE,6.827858767336503,49.138501550369526,O,O
Kalhausen,KALHAUSEN,MOSELLE,7.124716021448651,49.03468549584037,N,O
Auray,AURAY,MORBIHAN,-2.99960913456031,47.680247089999995,O,O
Volvic,VOLVIC,PUY-DE-DOME,2.99867906229565,45.86777595338548,O,O
Villers-Bretonneux,VILLERS-BRETONNEUX,SOMME,2.52158266337183,49.86262910170623,N,O
Verneuil-sur-Vienne,VERNEUIL-SUR-VIENNE,HAUTE-VIENNE,1.112720269515773,45.83785371010536,O,O
Naintré-les-Barres,NAINTRE,VIENNE,0.496188527794818,46.75941618239306,O,O
Les Flachères,CHARBONNIERES-LES-BAINS,RHONE,4.754091309319198,45.77727373763648,N,O
Biot,ANTIBES,ALPES-MARITIMES,7.12705036619729,43.61237944224629,N,O
Charleville-Mézières,CHARLEVILLE-MEZIERES,ARDENNES,4.725628702138134,49.768366315516765,O,O
Aubagne,AUBAGNE,BOUCHES-DU-RHONE,5.566716479321149,43.29621661369681,O,O
St-Chéron,SAINT-CHERON,ESSONNE,2.12573556579795,48.55109190923052,N,O
Mayet,MAYET,SARTHE,0.265937532744148,47.76008523771197,N,O
Villeneuve-sur-Yonne,VILLENEUVE-SUR-YONNE,YONNE,3.286346893591795,48.086090907944325,N,O
Hagondange,MONDELANGE,MOSELLE,6.164236514687637,49.25530911597803,O,O
Viviers-du-Lac,VIVIERS-DU-LAC,SAVOIE,5.903286256790191,45.64855116710634,N,O
Ablon,ABLON-SUR-SEINE,VAL-DE-MARNE,2.417931573714535,48.72396312662991,N,O
Vaulry,VAULRY,HAUTE-VIENNE,1.109087939398972,46.02476599958137,N,O
Le Havre-Graville,LE HAVRE,SEINE-MARITIME,0.161551148840385,49.49990190084749,N,O
Stade-de-France-St-Denis,SAINT-DENIS,SEINE-SAINT-DENIS,2.349772507710506,48.91864025141908,N,O
Clamecy,CLAMECY,NIEVRE,3.518567941517941,47.46498987618404,O,O
Dannes-Camiers,CAMIERS,PAS-DE-CALAIS,1.614866883534974,50.57625634487162,O,O
La Forest,LA FOREST-LANDERNEAU,FINISTERE,-4.307191186412101,48.42635046201861,N,O
La Celle-St-Cloud,LA CELLE-SAINT-CLOUD,YVELINES,2.138194315944331,48.842665067365125,N,O
Malesherbes,LE MALESHERBOIS,LOIRET,2.40099439248392,48.29341001336288,O,O
Épône-Mézières,EPONE,YVELINES,1.811201608702701,48.96343643154164,N,O
Bédarieux,BEDARIEUX,HERAULT,3.149678977670749,43.60861386778448,N,O
Bailleul-Sir-Berthoult,BAILLEUL-SIR-BERTHOULT,PAS-DE-CALAIS,2.840839307618612,50.33448426394891,N,O
Lezennes,LILLE,NORD,3.098512492228862,50.62039250895139,N,O
Valenciennes,VALENCIENNES,NORD,3.518515366298679,50.3659654003862,O,O
Cuers-Pierrefeu,CUERS,VAR,6.085667620378097,43.236360429974035,N,O
Habsheim,HABSHEIM,HAUT-RHIN,7.418284187622341,47.737707520560846,N,O
Cahors,CAHORS,LOT,1.432889963232879,44.448526304213885,O,O
St-Senoux-Pléchâtel,SAINT-SENOUX,ILLE-ET-VILAINE,-1.766135330503265,47.89787749005208,N,O
Lisieux,LISIEUX,CALVADOS,0.231547783801508,49.13876009162189,N,O
St-Florentin-Vergigny,VERGIGNY,YONNE,3.729929252026178,47.98020249062703,O,O
Tulle,TULLE,CORREZE,1.757424216511593,45.25794001504676,N,O
Fontaines-Mercurey,FONTAINES,SAONE-ET-LOIRE,4.77523537954581,46.85120280986514,N,O
Goussainville,GOUSSAINVILLE,VAL-D'OISE,2.464145013775797,49.02435286820885,O,O
Lardy,LARDY,ESSONNE,2.253571152085942,48.519964986339474,N,O
Montlaur,MONTLAUR,HAUTE-GARONNE,1.578728505246302,43.47474448691258,N,O
St-Raphaël-Valescure,SAINT-RAPHAEL,VAR,6.769239761566718,43.42366684812933,N,O
Breteuil-Embranchement,BACOUEL,OISE,2.384230934090904,49.62668016310979,O,O
Les Fontinettes,CALAIS,PAS-DE-CALAIS,1.849961409941935,50.94058380754782,N,O
Le Valdahon,VALDAHON,DOUBS,6.34238015058726,47.149816892748554,O,O
Lancey,VILLARD-BONNOT,ISERE,5.880868045948992,45.23453734722773,N,O
Valleiry,VALLEIRY,HAUTE-SAVOIE,5.967003885403025,46.10942676461893,O,O
Belleville,BELLEVILLE,MEURTHE-ET-MOSELLE,6.101709203382132,48.81942505701919,O,O
Calais-Fréthun,FRETHUN,PAS-DE-CALAIS,1.812465843119202,50.901607278499874,N,O
Liverdun,LIVERDUN,MEURTHE-ET-MOSELLE,6.061793518753852,48.749287127156066,N,O
Alençon,ALENCON,ORNE,0.099146402339928,48.43394020457713,O,O
Le Thor,LE THOR,VAUCLUSE,4.996309881547961,43.92634614209713,N,O
Kruth,KRUTH,HAUT-RHIN,6.969472921578649,47.923391148754874,N,O
Namps-Quevauvillers,NAMPS-MAISNIL,SOMME,2.105280731925284,49.808146221661694,N,O
Niversac,BOULAZAC ISLE MANOIRE,DORDOGNE,0.808307981501079,45.13838581046404,O,O
Larche,SAINT-PANTALEON-DE-LARCHE,CORREZE,1.416151374836176,45.13208336284574,N,O
Dugny-La Courneuve TT,LA COURNEUVE,SEINE-SAINT-DENIS,2.411335416839308,48.9437182103028,N,O
Maromme,NOTRE-DAME-DE-BONDEVILLE,SEINE-MARITIME,1.050812936294812,49.47995060622689,N,O
Souppes-Château-Landon,SOUPPES-SUR-LOING,SEINE-ET-MARNE,2.735014280352225,48.18178496677811,O,O
Mennecy,MENNECY,ESSONNE,2.433268053440552,48.57113280817187,N,O
Veynes-Dévoluy,VEYNES,HAUTES-ALPES,5.815941234250181,44.5318792637303,O,O
Cérons,CERONS,GIRONDE,-0.340829735297604,44.632159173017854,N,O
St-Léonard,SAINT-LEONARD,VOSGES,6.941310871948678,48.21682744071811,N,O
Estressin,VIENNE,ISERE,4.868163857041889,45.54021379785767,N,O
Uchaud,UCHAUD,GARD,4.267364832101653,43.75797924386263,N,O
Montbartier,MONTBARTIER,TARN-ET-GARONNE,1.264496752994648,43.92414782214016,O,O
Thonon-les-Bains,THONON-LES-BAINS,HAUTE-SAVOIE,6.482718549845309,46.36919304433496,O,O
Le Molay-Littry,LE MOLAY-LITTRY,CALVADOS,-0.881589184516523,49.24920849297646,N,O
Pont-de-Lignon,BEAUZAC,HAUTE-LOIRE,4.137456811955177,45.25981324098422,N,O
Rountzenheim,ROUNTZENHEIM-AUENHEIM,BAS-RHIN,8.011781791876578,48.82044576328301,N,O
Muizon,MUIZON,MARNE,3.891856462971211,49.27821387661403,O,O
Baillargues,BAILLARGUES,HERAULT,4.006768360783083,43.653138822741845,N,O
Neuvic,NEUVIC,DORDOGNE,0.445212384622905,45.09983757266865,N,O
St-Dizier,SAINT-DIZIER,HAUTE-MARNE,4.951079373888255,48.641753751106705,O,O
St-Germain-en-Laye-Bel-Air-Fourqueux,SAINT-GERMAIN-EN-LAYE,YVELINES,2.069813164581138,48.894567467109496,N,O
Douzillac,DOUZILLAC,DORDOGNE,0.417067509018416,45.0793323121456,N,O
Watten-Éperlecques,EPERLECQUES,PAS-DE-CALAIS,2.207772910280331,50.82578985957985,N,O
Morre,MORRE,DOUBS,6.067525527698583,47.22582216804058,N,O
Montrichard,MONTRICHARD VAL DE CHER,LOIR-ET-CHER,1.171805894101684,47.34380533566546,N,O
Villeneuve-la-Guyard,VILLENEUVE-LA-GUYARD,YONNE,3.070452872854256,48.342988618490054,N,O
St-Germain-en-Laye-Grande-Ceinture,SAINT-GERMAIN-EN-LAYE,YVELINES,2.072918440915781,48.90359235418844,N,O
Meaux,MEAUX,SEINE-ET-MARNE,2.873403753140162,48.95683307565232,O,O
Bretenoux-Biars,BIARS-SUR-CERE,LOT,1.844127782707252,44.92753201313112,O,O
Bueil,BUEIL,EURE,1.44379094005207,48.92509435202495,N,O
Montfavet,AVIGNON,VAUCLUSE,4.873999693506314,43.93252871071503,N,O
Chagny,CHAGNY,SAONE-ET-LOIRE,4.748512785967911,46.90691709262189,N,O
Masseret,MASSERET,CORREZE,1.541344325692093,45.53668802111832,N,O
Les Quatre-Routes,LE VIGNON-EN-QUERCY,LOT,1.643741723887314,44.99766668078274,N,O
St-Quentin-en-Yvelines,MONTIGNY-LE-BRETONNEUX,YVELINES,2.044365664932942,48.787365657631234,N,O
Vougeot-Gilly-lès-Cîteaux,GILLY-LES-CITEAUX,COTE-D'OR,4.971491777174238,47.175341015071616,N,O
Suèvres,SUEVRES,LOIR-ET-CHER,1.454682135115395,47.680632998722544,N,O
Don-Sainghin,SAINGHIN-EN-WEPPES,NORD,2.913559057969857,50.551472314779616,O,O
Les Ramassiers,TOULOUSE,HAUTE-GARONNE,1.352765431547052,43.60251885297341,N,O
Estrées-St-Denis,ESTREES-SAINT-DENIS,OISE,2.642715127062509,49.43788257800022,O,O
Langogne,LANGOGNE,LOZERE,3.858624245649865,44.73198417085106,O,O
Aigrefeuille-Le Thou,LE THOU,CHARENTE-MARITIME,-0.952083708878203,46.09393484633778,N,O
Beuvry (Pas-de-Calais),BEUVRY,PAS-DE-CALAIS,2.690170519981582,50.536145203422166,N,O
Thuès-les-Bains,NYER,PYRENEES-ORIENTALES,2.249128954934511,42.52888451393281,N,O
Bourth,BOURTH,EURE,0.804607667477101,48.765711871348856,N,O
Lentilly,LENTILLY,RHONE,4.667205453902536,45.821806043831806,N,O
Clacy-Mons,CLACY-ET-THIERRET,AISNE,3.576634965867545,49.54375630988866,N,O
Pauillac,PAUILLAC,GIRONDE,-0.755104732531348,45.20382280173109,N,O
Ancy-sur-Moselle,ANCY-DORNOT,MOSELLE,6.062761757412355,49.05736994965854,N,O
Anzeling,ANZELING,MOSELLE,6.459586407658986,49.2624167581957,N,O
Noyon,NOYON,OISE,3.00667025565902,49.57700839771704,O,O
Grenoble-Université-Gières,GIERES,ISERE,5.784641753561916,45.184967707601984,O,O
Damiatte-St-Paul,DAMIATTE,TARN,1.974259965151917,43.65635946503373,N,O
Esvres,ESVRES,INDRE-ET-LOIRE,0.781573759630258,47.28412187786619,N,O
Belfort,DANJOUTIN,TERRITOIRE-DE-BELFORT,6.866488167928119,47.620787230688144,O,O
Groslay,GROSLAY,VAL-D'OISE,2.353836106473294,48.9844996702509,N,O
Freinville-Sevran,SEVRAN,SEINE-SAINT-DENIS,2.518925053554881,48.92740637167949,N,O
St-Sulpice-Izon,SAINT-SULPICE-ET-CAMEYRAC,GIRONDE,-0.391144962036709,44.91412294201807,N,O
Gallargues,GALLARGUES-LE-MONTUEUX,GARD,4.171264343948089,43.71604915271701,N,O
Montlouis,MONTLOUIS-SUR-LOIRE,INDRE-ET-LOIRE,0.816905550372886,47.39100335147634,N,O
Milhaud,MILHAUD,GARD,4.303360621176713,43.78862001622727,N,O
Novéant,NOVEANT-SUR-MOSELLE,MOSELLE,6.052355404407254,49.02816598959084,N,O
Aillevillers,CORBENAY,HAUTE-SAONE,6.337179476654045,47.91418425574061,O,O
Quincieux,QUINCIEUX,RHONE,4.778864810556997,45.90662720302737,N,O
Lille-Europe,LILLE,NORD,3.075358680700009,50.63937158035179,N,O
Sévérac-le-Château,SEVERAC D'AVEYRON,AVEYRON,3.056233833704843,44.32588340399582,O,O
Corcieux-Vanémont,LA HOUSSIERE,VOSGES,6.877630055927241,48.19841684438636,N,O
Laigneville,LAIGNEVILLE,OISE,2.449081109849179,49.29323143422546,N,O
Stains-Cerisaie TT,STAINS,SEINE-SAINT-DENIS,2.391658086990002,48.95468724360871,N,O
Torfou,SEVREMOINE,MAINE-ET-LOIRE,-1.093806015494413,47.03284111674271,N,O
Rémy,REMY,OISE,2.70574972068875,49.43317272238422,N,O
Le Merlerault,LE MERLERAULT,ORNE,0.283314238294342,48.702520171465096,N,O
Biffontaine,BIFFONTAINE,VOSGES,6.807192107669247,48.20595274426666,N,O
St-Piat,SAINT-PIAT,EURE-ET-LOIR,1.590248880831111,48.54288412127952,N,O
Savonnières,SAVONNIERES,INDRE-ET-LOIRE,0.544098494950576,47.36062667812934,N,O
Brest,BREST,FINISTERE,-4.479243011743669,48.3879297952412,O,O
Lyon-Gorge-de-Loup,LYON,RHONE,4.804524590633849,45.765956329548665,N,O
Mouy-Bury,BURY,OISE,2.326570137374303,49.32054635326035,N,O
Montgeroult-Courcelles,MONTGEROULT,VAL-D'OISE,2.003781236555363,49.0804673352717,N,O
Gannes,GANNES,OISE,2.436802303542406,49.57251080954575,N,O
Châtellerault,CHATELLERAULT,VIENNE,0.549511359941678,46.81853401630969,O,O
Gandrange-Amnéville,AMNEVILLE,MOSELLE,6.135942550081968,49.260879766029134,O,O
Plouharnel-Carnac,PLOUHARNEL,MORBIHAN,-3.11838614250868,47.604321433014995,N,O
Baraqueville-Carcenac-Peyralès,BARAQUEVILLE,AVEYRON,2.428143927438019,44.270603189325136,O,O
Èze,EZE,ALPES-MARITIMES,7.357169142675404,43.72224347830295,N,O
Courbevoie,COURBEVOIE,HAUTS-DE-SEINE,2.248123472859284,48.89814547433373,N,O
Carry-le-Rouet,CARRY-LE-ROUET,BOUCHES-DU-RHONE,5.153617535032011,43.33668381971023,N,O
St-Ay,SAINT-AY,LOIRET,1.74976615763334,47.863047055007016,N,O
Epernay,EPERNAY,MARNE,3.960087913233235,49.04641786994185,N,O
Longwy,LONGWY,MEURTHE-ET-MOSELLE,5.769720766879925,49.51259328578975,O,O
Hermes-Berthecourt,BERTHECOURT,OISE,2.241637723071335,49.35440134787764,N,O
Gevrey-Chambertin,GEVREY-CHAMBERTIN,COTE-D'OR,4.998960077909259,47.22728961857255,N,O
La Fontaine,WAVRIN,NORD,2.925689632236974,50.56515486976472,N,O
Verneuil-l'Étang,VERNEUIL-L'ETANG,SEINE-ET-MARNE,2.825024773080076,48.64444131695957,O,O
Issou-Porcheville,ISSOU,YVELINES,1.785410737905602,48.97925034069754,N,O
Bretigny-Norges,BRETIGNY,COTE-D'OR,5.11028436975937,47.38985612266316,N,O
Pleudihen,PLEUDIHEN-SUR-RANCE,COTES-D'ARMOR,-1.961688851097427,48.4994063433459,N,O
Cormeilles-en-Parisis,CORMEILLES-EN-PARISIS,VAL-D'OISE,2.193380215177233,48.968388207390454,N,O
Boran-sur-Oise,BORAN-SUR-OISE,OISE,2.362764104585043,49.16704499188032,N,O
Landévant,LANDEVANT,MORBIHAN,-3.125638490824394,47.75951810905559,N,O
St-Avold,VALMONT,MOSELLE,6.720845777989539,49.085756972482976,N,O
Thuès,THUES-ENTRE-VALLS,PYRENEES-ORIENTALES,2.222778080202633,42.52290667654984,N,O
Jeumont,JEUMONT,NORD,4.086856778953874,50.296319092273265,O,O
Maroeuil,MARUIL,PAS-DE-CALAIS,2.698229528348672,50.32245804818262,O,O
Tarascon,TARASCON,BOUCHES-DU-RHONE,4.65761337189862,43.80062471532483,O,O
Villeneuve-la-Comtesse,VILLENEUVE-LA-COMTESSE,CHARENTE-MARITIME,-0.513011750386122,46.09871488224444,N,O
Bernay,BERNAY,EURE,0.595806572158335,49.08703884113328,N,O
Cornil,CORNIL,CORREZE,1.697798774854842,45.21519625713731,N,O
Bigny,VALLENAY,CHER,2.368230050773003,46.80190372174331,N,O
Pontorson-Mont-St-Michel,PONTORSON,MANCHE,-1.504908810054122,48.55243177361564,N,O
Buzy-en-Béarn,BUZY,PYRENEES-ATLANTIQUES,-0.456818633841091,43.14667688630999,N,O
La Gorp,AMBARES-ET-LAGRAVE,GIRONDE,-0.496373255971447,44.92874552971432,N,O
Metz-Nord,METZ,MOSELLE,6.166700571300231,49.13697530269247,N,O
Mesvres,MESVRES,SAONE-ET-LOIRE,4.244709727961873,46.86293850590604,N,O
Sierentz,SIERENTZ,HAUT-RHIN,7.459421375280683,47.65615487596274,N,O
Sausset-les-Pins,SAUSSET-LES-PINS,BOUCHES-DU-RHONE,5.110071485855709,43.332982152777,N,O
Colomiers-Lycée-International,COLOMIERS,HAUTE-GARONNE,1.314098348719947,43.61645499022699,N,O
Rixheim,RIXHEIM,HAUT-RHIN,7.399542952229912,47.75126463742996,N,O
Saulxures,COLROY-LA-ROCHE,BAS-RHIN,7.148133697254386,48.38984235996829,N,O
Autun,AUTUN,SAONE-ET-LOIRE,4.292902253657597,46.95495665067907,O,O
La Wantzenau,LA WANTZENAU,BAS-RHIN,7.82507469852873,48.66534521263562,N,O
Invalides,PARIS,PARIS,2.313424355031458,48.86299452148764,N,O
Paris-Nord-Souterraine,PARIS,PARIS,2.356160022572003,48.88164194198079,N,O
Munster,MUNSTER,HAUT-RHIN,7.134168120018408,48.03816201780456,N,O
Combs-la-Ville-Quincy,COMBS-LA-VILLE,SEINE-ET-MARNE,2.54704224181887,48.66864679123076,N,O
Château-Thierry,CHATEAU-THIERRY,AISNE,3.409738322821553,49.03782614971172,O,O
Fos-sur-Mer,PORT-DE-BOUC,BOUCHES-DU-RHONE,4.974723323859059,43.42808949860721,N,O
Mailly-la-Ville,MAILLY-LA-VILLE,YONNE,3.674911110415254,47.60392589664921,N,O
Wilwisheim,WILWISHEIM,BAS-RHIN,7.5076520421221,48.745911662028554,N,O
Chaville-Rive-Gauche,CHAVILLE,HAUTS-DE-SEINE,2.189228436283296,48.80489731189981,N,O
Lunéville,LUNEVILLE,MEURTHE-ET-MOSELLE,6.496866085845141,48.587861328669135,O,O
St-André-de-Corcy,SAINT-ANDRE-DE-CORCY,AIN,4.948707636273644,45.925981717567566,O,O
Siorac-en-Périgord,SIORAC-EN-PERIGORD,DORDOGNE,0.987829145665422,44.81996737198574,N,O
Cugand,CUGAND,VENDEE,-1.253460161353398,47.05830362769608,N,O
Tergnier,TERGNIER,AISNE,3.296711314334675,49.65939608333372,O,O
Vauboyen,JOUY-EN-JOSAS,ESSONNE,2.191964635404658,48.75926108772385,N,O
Agonac,AGONAC,DORDOGNE,0.748705624293986,45.286590073064275,N,O
Chaumont,CHAUMONT,HAUTE-MARNE,5.10906827225772,48.1119332578839,O,O
Varennes-sur-Allier,VARENNES-SUR-ALLIER,ALLIER,3.394060932843521,46.31531678890195,O,O
Les Essarts-le-Roi,LES ESSARTS-LE-ROI,YVELINES,1.890075166617603,48.72190567336512,N,O
Bertrichamps,BERTRICHAMPS,MEURTHE-ET-MOSELLE,6.791349301845821,48.42834511108835,N,O
Rodez,RODEZ,AVEYRON,2.580264601812115,44.36265275692083,O,O
Chézy-sur-Marne,CHEZY-SUR-MARNE,AISNE,3.364692973125201,48.99193535604067,N,O
Valleroy-Moineville,VALLEROY,MEURTHE-ET-MOSELLE,5.934437034177994,49.20508780036244,N,O
Rives,RIVES,ISERE,5.491635721739623,45.35817446902181,O,O
Paulhaguet,SALZUIT,HAUTE-LOIRE,3.500321277993668,45.210402946711454,N,O
Laval,LAVAL,MAYENNE,-0.760858912745977,48.07634359710921,O,O
Elbeuf-St-Aubin,SAINT-AUBIN-LES-ELBEUF,SEINE-MARITIME,1.010400781169662,49.30276778901842,O,O
Port-Ste-Marie,PORT-SAINTE-MARIE,LOT-ET-GARONNE,0.388545716635139,44.250464514429325,O,O
Neuvy-Pailloux,NEUVY-PAILLOUX,INDRE,1.866020530373801,46.88464239600489,O,O
St-Sulpice,SAINT-SULPICE-LA-POINTE,TARN,1.681196438908496,43.77563039190112,N,O
Cerbère,CERBERE,PYRENEES-ORIENTALES,3.164658104570377,42.44222906253806,O,O
Les Vallées,COLOMBES,HAUTS-DE-SEINE,2.254739481701673,48.91375711288276,N,O
Marbache,MARBACHE,MEURTHE-ET-MOSELLE,6.109300958042654,48.80109474554513,N,O
Lannemezan,LANNEMEZAN,HAUTES-PYRENEES,0.38757770580269,43.11417438912809,O,O
Loos-en-Gohelle,LENS,PAS-DE-CALAIS,2.792160590965308,50.43781911422395,N,O
Broons,BROONS,COTES-D'ARMOR,-2.23584863546406,48.33337010660816,N,O
Le Bras-de-fer,EVRY-COURCOURONNES,ESSONNE,2.450788308794665,48.623293631298566,N,O
Le Valdahon Camp Militaire,VALDAHON,DOUBS,6.313934729365829,47.15122887076845,N,O
St-Louis-la-Chaussée,SAINT-LOUIS,HAUT-RHIN,7.531044331517944,47.609531960908214,N,O
Saintes,SAINTES,CHARENTE-MARITIME,-0.617587884909049,45.74784035534782,O,O
Conflans-Jarny,JARNY,MEURTHE-ET-MOSELLE,5.868148235454816,49.1666621733777,O,O
Toulouse-Matabiau,TOULOUSE,HAUTE-GARONNE,1.454396139877268,43.61069941718024,N,O
Pougues-les-Eaux,POUGUES-LES-EAUX,NIEVRE,3.093935198617941,47.076783868711495,N,O
Villers-Cotterêts,VILLERS-COTTERETS,AISNE,3.09930750077685,49.23834221613569,O,O
Joué-lès-Tours,JOUE-LES-TOURS,INDRE-ET-LOIRE,0.665780709721447,47.35446873807753,O,O
Essonnes-Robinson,CORBEIL-ESSONNES,ESSONNE,2.463531122485383,48.60601044388837,N,O
Blangy-sur-Bresle,BLANGY-SUR-BRESLE,SEINE-MARITIME,1.625954206804477,49.93252195847866,N,O
Prunay,PRUNAY,MARNE,4.183760460727639,49.19871245335,N,O
Digoin,DIGOIN,SAONE-ET-LOIRE,3.988008620648722,46.4852517882021,O,O
Sèvres-Rive-Gauche,SEVRES,HAUTS-DE-SEINE,2.214822441475013,48.82111096815825,N,O
Cintegabelle,CINTEGABELLE,HAUTE-GARONNE,1.520565037259206,43.305245269871435,O,O
Les Cabrils,ROQUEREDONDE,HERAULT,3.18619244268379,43.77956015882409,N,O
Colroy-Lubine,PROVENCHERES-ET-COLROY,VOSGES,7.131273436179746,48.314561952442055,N,O
Albias,ALBIAS,TARN-ET-GARONNE,1.443633051368783,44.09121318138205,N,O
Ste-Lizaigne,MIGNY,INDRE,2.031438251825841,47.00644997654508,N,O
Aulnat-Aéroport,AULNAT,PUY-DE-DOME,3.16098536301033,45.792055655552275,O,O
Massiac,MASSIAC,CANTAL,3.196485121914399,45.2537520440839,N,O
Barentin-Embranchement,BARENTIN,SEINE-MARITIME,0.955077297998753,49.54826901644424,N,O
Chantenay-St-Imbert,CHANTENAY-SAINT-IMBERT,NIEVRE,3.172007503041122,46.72817686476446,N,O
Veuves-Monteaux,VEUZAIN-SUR-LOIRE,LOIR-ET-CHER,1.123860874464395,47.47562823460634,N,O
Hirson,HIRSON,AISNE,4.084730086619008,49.91456205465362,N,O
Villeneuve-sur-Allier,VILLENEUVE-SUR-ALLIER,ALLIER,3.246865273621824,46.65911911232658,N,O
